{
"type": "FeatureCollection",
"crs": { "type": "name", "properties": { "name": "urn:ogc:def:crs:OGC:1.3:CRS84" } },
"features": [
{ "type": "Feature", "properties": { "name": "臺北市中正區螢橋國民小學附設幼兒園", "district": "中正區", "type": "公立", "address": "[100]詔安街29號1樓", "telephone": "(02)23048543#30", "people": "182", "quasi-public": "無", "lng": 121.51444003056474, "lat": 25.024920015141802 }, "geometry": { "type": "Point", "coordinates": [ 121.514440030564742, 25.024920015141802 ] } },
{ "type": "Feature", "properties": { "name": "臺北市中正區國語實驗國民小學附設幼兒園", "district": "中正區", "type": "公立", "address": "[100]重慶南路二段14之4號1樓至2樓", "telephone": "(02)23118126#19", "people": "180", "quasi-public": "無", "lng": 121.51330000791387, "lat": 25.033130005483116 }, "geometry": { "type": "Point", "coordinates": [ 121.51330000791387, 25.033130005483116 ] } },
{ "type": "Feature", "properties": { "name": "臺北市中正區東門國民小學附設幼兒園", "district": "中正區", "type": "公立", "address": "[100]仁愛路一段2之4號", "telephone": "(02)23412051#36", "people": "150", "quasi-public": "無", "lng": 121.52169004153541, "lat": 25.038569986372522 }, "geometry": { "type": "Point", "coordinates": [ 121.521690041535408, 25.038569986372522 ] } },
{ "type": "Feature", "properties": { "name": "臺北市中正區河堤國民小學附設幼兒園", "district": "中正區", "type": "公立", "address": "[100]汀州路二段180號1樓", "telephone": "(02)23677144#175", "people": "120", "quasi-public": "無", "lng": 121.52263996262224, "lat": 25.023259979217897 }, "geometry": { "type": "Point", "coordinates": [ 121.522639962622236, 25.023259979217897 ] } },
{ "type": "Feature", "properties": { "name": "臺北市中正區忠孝國民小學附設幼兒園", "district": "中正區", "type": "公立", "address": "[100]忠孝東路二段101號1樓", "telephone": "(02)23918170#873", "people": "60", "quasi-public": "無", "lng": 121.53156995844637, "lat": 25.042910010108216 }, "geometry": { "type": "Point", "coordinates": [ 121.531569958446369, 25.042910010108216 ] } },
{ "type": "Feature", "properties": { "name": "臺北市立大學附設實驗國民小學附設幼兒園", "district": "中正區", "type": "公立", "address": "[100]公園路29號1樓", "telephone": "(02)23117991", "people": "180", "quasi-public": "無", "lng": 121.51520999219048, "lat": 25.036009985504677 }, "geometry": { "type": "Point", "coordinates": [ 121.515209992190478, 25.036009985504677 ] } },
{ "type": "Feature", "properties": { "name": "臺北市立中正幼兒園", "district": "中正區", "type": "公立", "address": "[100]濟南路二段46號2樓", "telephone": "(02)23933620", "people": "150", "quasi-public": "無", "lng": 121.53089999292553, "lat": 25.04033999286608 }, "geometry": { "type": "Point", "coordinates": [ 121.530899992925526, 25.04033999286608 ] } },
{ "type": "Feature", "properties": { "name": "臺北市中正區南門國民小學附設幼兒園", "district": "中正區", "type": "公立", "address": "[100]廣州街6號", "telephone": "(02)23715052#801", "people": "60", "quasi-public": "無", "lng": 121.50909002940591, "lat": 25.03521999113039 }, "geometry": { "type": "Point", "coordinates": [ 121.509090029405911, 25.03521999113039 ] } },
{ "type": "Feature", "properties": { "name": "臺北市大同區雙蓮國民小學附設幼兒園", "district": "大同區", "type": "公立", "address": "[103]錦西街51號", "telephone": "(02)25570309#1111", "people": "166", "quasi-public": "無", "lng": 121.51667003590461, "lat": 25.060110010700356 }, "geometry": { "type": "Point", "coordinates": [ 121.51667003590461, 25.060110010700356 ] } },
{ "type": "Feature", "properties": { "name": "臺北市大同區延平國民小學附設幼兒園", "district": "大同區", "type": "公立", "address": "[103]昌吉街97號", "telephone": "(02)25958313#514", "people": "136", "quasi-public": "無", "lng": 121.51239995915091, "lat": 25.066029981275108 }, "geometry": { "type": "Point", "coordinates": [ 121.512399959150912, 25.066029981275108 ] } },
{ "type": "Feature", "properties": { "name": "臺北市大同區太平國民小學附設幼兒園", "district": "大同區", "type": "公立", "address": "[103]延平北路二段239號", "telephone": "(02)25532229#805", "people": "152", "quasi-public": "無", "lng": 121.51143997978022, "lat": 25.0613700202952 }, "geometry": { "type": "Point", "coordinates": [ 121.511439979780221, 25.0613700202952 ] } },
{ "type": "Feature", "properties": { "name": "臺北市大同區大同國民小學附設幼兒園", "district": "大同區", "type": "公立", "address": "[103]大龍街51號", "telephone": "(02)25965407#171", "people": "120", "quasi-public": "無", "lng": 121.51609998266963, "lat": 25.064790004428843 }, "geometry": { "type": "Point", "coordinates": [ 121.51609998266963, 25.064790004428843 ] } },
{ "type": "Feature", "properties": { "name": "臺北市大同區日新國民小學附設幼兒園", "district": "大同區", "type": "公立", "address": "[103]太原路151號", "telephone": "(02)25584819#520", "people": "166", "quasi-public": "無", "lng": 121.51648999262437, "lat": 25.054389990425847 }, "geometry": { "type": "Point", "coordinates": [ 121.516489992624372, 25.054389990425847 ] } },
{ "type": "Feature", "properties": { "name": "臺北市大同區大橋國民小學附設幼兒園", "district": "大同區", "type": "公立", "address": "[103]重慶北路三段2號", "telephone": "(02)25944413#162", "people": "106", "quasi-public": "無", "lng": 121.51337997127018, "lat": 25.06428000753013 }, "geometry": { "type": "Point", "coordinates": [ 121.513379971270183, 25.06428000753013 ] } },
{ "type": "Feature", "properties": { "name": "臺北市大同區大龍國民小學附設幼兒園", "district": "大同區", "type": "公立", "address": "[103]哈密街47號", "telephone": "(02)25942635#878", "people": "166", "quasi-public": "無", "lng": 121.51671999204751, "lat": 25.073399979189688 }, "geometry": { "type": "Point", "coordinates": [ 121.516719992047513, 25.073399979189688 ] } },
{ "type": "Feature", "properties": { "name": "臺北市立大同幼兒園", "district": "大同區", "type": "公立", "address": "[103]南京西路64巷9弄8號", "telephone": "(02)25595901", "people": "180", "quasi-public": "無", "lng": 121.51910003345415, "lat": 25.052319995617637 }, "geometry": { "type": "Point", "coordinates": [ 121.519100033454151, 25.052319995617637 ] } },
{ "type": "Feature", "properties": { "name": "臺北市大同區永樂國民小學附設幼兒園", "district": "大同區", "type": "公立", "address": "[103]延平北路二段266號", "telephone": "(02)25534882#601", "people": "182", "quasi-public": "無", "lng": 121.51113001700077, "lat": 25.061689999448916 }, "geometry": { "type": "Point", "coordinates": [ 121.511130017000767, 25.061689999448916 ] } },
{ "type": "Feature", "properties": { "name": "臺北市大同區蓬萊國民小學附設幼兒園", "district": "大同區", "type": "公立", "address": "[103]寧夏路35號", "telephone": "(02)25569835#110", "people": "106", "quasi-public": "無", "lng": 121.51556999493187, "lat": 25.056519999660793 }, "geometry": { "type": "Point", "coordinates": [ 121.515569994931866, 25.056519999660793 ] } },
{ "type": "Feature", "properties": { "name": "臺北市立啟聰學校幼兒部", "district": "大同區", "type": "公立", "address": "[103]重慶北路3段320號", "telephone": "(02)25924446#300", "people": "0", "quasi-public": "無", "lng": 121.51357996347991, "lat": 25.0746899959979 }, "geometry": { "type": "Point", "coordinates": [ 121.513579963479913, 25.0746899959979 ] } },
{ "type": "Feature", "properties": { "name": "臺北市立中山幼兒園", "district": "中山區", "type": "公立", "address": "[104]大直街25號1、2樓", "telephone": "(02)25336738", "people": "222", "quasi-public": "無", "lng": 121.54661002640921, "lat": 25.081849985328432 }, "geometry": { "type": "Point", "coordinates": [ 121.546610026409212, 25.081849985328432 ] } },
{ "type": "Feature", "properties": { "name": "臺北市中山區長安國民小學附設幼兒園", "district": "中山區", "type": "公立", "address": "[104]吉林路15號", "telephone": "(02)25617600#172", "people": "152", "quasi-public": "無", "lng": 121.53018996190752, "lat": 25.049750020285018 }, "geometry": { "type": "Point", "coordinates": [ 121.530189961907524, 25.049750020285018 ] } },
{ "type": "Feature", "properties": { "name": "臺北市中山區懷生國民小學附設幼兒園", "district": "中山區", "type": "公立", "address": "[104]安東街16巷2號", "telephone": "(02)27710846#903", "people": "30", "quasi-public": "無", "lng": 121.54173997302621, "lat": 25.045270018766288 }, "geometry": { "type": "Point", "coordinates": [ 121.54173997302621, 25.045270018766288 ] } },
{ "type": "Feature", "properties": { "name": "臺北市中山區大佳國民小學附設幼兒園", "district": "中山區", "type": "公立", "address": "[104]濱江街107號2樓", "telephone": "(02)25059744", "people": "60", "quasi-public": "無", "lng": 121.56180604311685, "lat": 25.070664444445168 }, "geometry": { "type": "Point", "coordinates": [ 121.561806043116846, 25.070664444445168 ] } },
{ "type": "Feature", "properties": { "name": "臺北市中山區濱江國民小學附設幼兒園", "district": "中山區", "type": "公立", "address": "[104]樂群2路266巷99號", "telephone": "(02)85021571#1500", "people": "182", "quasi-public": "無", "lng": 121.56090997232167, "lat": 25.077199998813313 }, "geometry": { "type": "Point", "coordinates": [ 121.560909972321667, 25.077199998813313 ] } },
{ "type": "Feature", "properties": { "name": "臺北市中山區大直國民小學附設幼兒園", "district": "中山區", "type": "公立", "address": "[104]大直街2號", "telephone": "(02)25336733#12", "people": "106", "quasi-public": "無", "lng": 121.54644004141278, "lat": 25.080489979628695 }, "geometry": { "type": "Point", "coordinates": [ 121.546440041412779, 25.080489979628695 ] } },
{ "type": "Feature", "properties": { "name": "臺北市中山區永安國民小學附設幼兒園", "district": "中山區", "type": "公立", "address": "[104]明水路397巷19弄1號", "telephone": "(02)25335672#270", "people": "152", "quasi-public": "無", "lng": 121.54938996841639, "lat": 25.078729989509441 }, "geometry": { "type": "Point", "coordinates": [ 121.549389968416392, 25.078729989509441 ] } },
{ "type": "Feature", "properties": { "name": "臺北市中山區五常國民小學附設幼兒園", "district": "中山區", "type": "公立", "address": "[104]五常街16號", "telephone": "(02)25023416#114", "people": "226", "quasi-public": "無", "lng": 121.5422100301563, "lat": 25.064189985890025 }, "geometry": { "type": "Point", "coordinates": [ 121.542210030156298, 25.064189985890025 ] } },
{ "type": "Feature", "properties": { "name": "臺北市中山區吉林國民小學附設幼兒園", "district": "中山區", "type": "公立", "address": "[104]長春路116號", "telephone": "(02)25219196#880", "people": "166", "quasi-public": "無", "lng": 121.5302600346181, "lat": 25.054719985953867 }, "geometry": { "type": "Point", "coordinates": [ 121.530260034618095, 25.054719985953867 ] } },
{ "type": "Feature", "properties": { "name": "臺北市中山區長春國民小學附設幼兒園", "district": "中山區", "type": "公立", "address": "[104]長春路165號", "telephone": "(02)25024366#184", "people": "120", "quasi-public": "無", "lng": 121.53388001096152, "lat": 25.054940010912219 }, "geometry": { "type": "Point", "coordinates": [ 121.533880010961525, 25.054940010912219 ] } },
{ "type": "Feature", "properties": { "name": "臺北市中山區中山國民小學附設幼兒園", "district": "中山區", "type": "公立", "address": "[104]民權東路一段69號", "telephone": "(02)25914085#8051", "people": "196", "quasi-public": "無", "lng": 121.52630997892766, "lat": 25.062909985456102 }, "geometry": { "type": "Point", "coordinates": [ 121.526309978927657, 25.062909985456102 ] } },
{ "type": "Feature", "properties": { "name": "臺北市立育航幼兒園", "district": "中山區", "type": "公立", "address": "[104]長春路256號", "telephone": "(02)25178372#210", "people": "270", "quasi-public": "無", "lng": 121.53887000937891, "lat": 25.054580008170831 }, "geometry": { "type": "Point", "coordinates": [ 121.538870009378911, 25.054580008170831 ] } },
{ "type": "Feature", "properties": { "name": "臺北市中山區中正國民小學附設幼兒園", "district": "中山區", "type": "公立", "address": "[104]龍江路62號", "telephone": "(02)25063653#174", "people": "152", "quasi-public": "無", "lng": 121.54025998038253, "lat": 25.050610003550815 }, "geometry": { "type": "Point", "coordinates": [ 121.54025998038253, 25.050610003550815 ] } },
{ "type": "Feature", "properties": { "name": "臺北市松山區民權國民小學附設幼兒園", "district": "松山區", "type": "公立", "address": "[105]民權東路四段200號1樓", "telephone": "(02)27652327#671", "people": "212", "quasi-public": "無", "lng": 121.56230002714426, "lat": 25.062499984662281 }, "geometry": { "type": "Point", "coordinates": [ 121.562300027144261, 25.062499984662281 ] } },
{ "type": "Feature", "properties": { "name": "臺北市松山區西松國民小學附設幼兒園", "district": "松山區", "type": "公立", "address": "[105]三民路5號1樓及2樓", "telephone": "(02)27609221#800", "people": "256", "quasi-public": "無", "lng": 121.5634939043268, "lat": 25.056999462802647 }, "geometry": { "type": "Point", "coordinates": [ 121.563493904326805, 25.056999462802647 ] } },
{ "type": "Feature", "properties": { "name": "臺北市松山區松山國民小學附設幼兒園", "district": "松山區", "type": "公立", "address": "[105]八德路四段746號1樓", "telephone": "(02)27614924", "people": "182", "quasi-public": "無", "lng": 121.57894003278528, "lat": 25.051130016823819 }, "geometry": { "type": "Point", "coordinates": [ 121.578940032785283, 25.051130016823819 ] } },
{ "type": "Feature", "properties": { "name": "臺北市松山區民族國民小學附設幼兒園", "district": "松山區", "type": "公立", "address": "[105]民生東路四段97巷7號1樓", "telephone": "(02)27124872#710", "people": "180", "quasi-public": "無", "lng": 121.5519753835045, "lat": 25.058925862543788 }, "geometry": { "type": "Point", "coordinates": [ 121.551975383504498, 25.058925862543788 ] } },
{ "type": "Feature", "properties": { "name": "臺北市松山區健康國民小學附設幼兒園", "district": "松山區", "type": "公立", "address": "[105]延壽街168號1樓", "telephone": "(02)25282814#200", "people": "90", "quasi-public": "無", "lng": 121.56293001098697, "lat": 25.056609979391382 }, "geometry": { "type": "Point", "coordinates": [ 121.562930010986975, 25.056609979391382 ] } },
{ "type": "Feature", "properties": { "name": "臺北市松山區三民國民小學附設幼兒園", "district": "松山區", "type": "公立", "address": "[105]民權東路五段1號1樓", "telephone": "(02)27646080#511", "people": "120", "quasi-public": "無", "lng": 121.56542002296328, "lat": 25.063310011785163 }, "geometry": { "type": "Point", "coordinates": [ 121.565420022963281, 25.063310011785163 ] } },
{ "type": "Feature", "properties": { "name": "臺北市立松山幼兒園", "district": "松山區", "type": "公立", "address": "[105]敦化北路199巷5號2樓", "telephone": "(02)27181189", "people": "180", "quasi-public": "無", "lng": 121.55203504221528, "lat": 25.056566158914606 }, "geometry": { "type": "Point", "coordinates": [ 121.55203504221528, 25.056566158914606 ] } },
{ "type": "Feature", "properties": { "name": "臺北市松山區敦化國民小學附設幼兒園", "district": "松山區", "type": "公立", "address": "[105]敦化北路2號1樓", "telephone": "(02)27414065#172", "people": "120", "quasi-public": "無", "lng": 121.54923327158797, "lat": 25.049842718743768 }, "geometry": { "type": "Point", "coordinates": [ 121.549233271587966, 25.049842718743768 ] } },
{ "type": "Feature", "properties": { "name": "臺北市大安區龍安國民小學附設幼兒園", "district": "大安區", "type": "公立", "address": "[106]新生南路三段33號1樓至3樓", "telephone": "(02)23628493#20", "people": "196", "quasi-public": "無", "lng": 121.53483999033216, "lat": 25.023940003022517 }, "geometry": { "type": "Point", "coordinates": [ 121.534839990332159, 25.023940003022517 ] } },
{ "type": "Feature", "properties": { "name": "臺北市大安區建安國民小學附設幼兒園", "district": "大安區", "type": "公立", "address": "[106]大安路二段99號", "telephone": "(02)27077119#170", "people": "150", "quasi-public": "無", "lng": 121.54615002756293, "lat": 25.029379983911937 }, "geometry": { "type": "Point", "coordinates": [ 121.546150027562931, 25.029379983911937 ] } },
{ "type": "Feature", "properties": { "name": "臺北市大安區仁愛國民小學附設幼兒園", "district": "大安區", "type": "公立", "address": "[106]安和路一段60號1樓", "telephone": "(02)27095010#509", "people": "120", "quasi-public": "無", "lng": 121.55239001920091, "lat": 25.03579000245584 }, "geometry": { "type": "Point", "coordinates": [ 121.552390019200914, 25.03579000245584 ] } },
{ "type": "Feature", "properties": { "name": "臺北市大安區古亭國民小學附設幼兒園", "district": "大安區", "type": "公立", "address": "[106]羅斯福路三段201號", "telephone": "(02)23639795#874", "people": "120", "quasi-public": "無", "lng": 121.5284799698407, "lat": 25.0206700130462 }, "geometry": { "type": "Point", "coordinates": [ 121.528479969840703, 25.0206700130462 ] } },
{ "type": "Feature", "properties": { "name": "臺北市大安區公館國民小學附設幼兒園", "district": "大安區", "type": "公立", "address": "[106]基隆路四段41巷68弄2號1樓至2樓", "telephone": "(02)27351734#271", "people": "90", "quasi-public": "無", "lng": 121.5428599629285, "lat": 25.012409982742938 }, "geometry": { "type": "Point", "coordinates": [ 121.542859962928503, 25.012409982742938 ] } },
{ "type": "Feature", "properties": { "name": "臺北市大安區大安國民小學附設幼兒園", "district": "大安區", "type": "公立", "address": "[106]臥龍街129號1至2樓", "telephone": "(02)27322332#871", "people": "210", "quasi-public": "無", "lng": 121.55049998385391, "lat": 25.018830017661131 }, "geometry": { "type": "Point", "coordinates": [ 121.550499983853911, 25.018830017661131 ] } },
{ "type": "Feature", "properties": { "name": "臺北市大安區新生國民小學附設幼兒園", "district": "大安區", "type": "公立", "address": "[106]新生南路二段36號", "telephone": "(02)23913122#250", "people": "120", "quasi-public": "無", "lng": 121.53345999379337, "lat": 25.030400019618867 }, "geometry": { "type": "Point", "coordinates": [ 121.533459993793372, 25.030400019618867 ] } },
{ "type": "Feature", "properties": { "name": "臺北市大安區幸安國民小學附設幼兒園", "district": "大安區", "type": "公立", "address": "[106]仁愛路三段22號", "telephone": "(02)27074191#3600", "people": "196", "quasi-public": "無", "lng": 121.53494996090183, "lat": 25.037610007001831 }, "geometry": { "type": "Point", "coordinates": [ 121.534949960901827, 25.037610007001831 ] } },
{ "type": "Feature", "properties": { "name": "國立臺北教育大學附設實驗國民小學附設幼兒園", "district": "大安區", "type": "公立", "address": "[106]和平東路二段94號", "telephone": "(02)27356186#180", "people": "120", "quasi-public": "無", "lng": 121.54088996422519, "lat": 25.025000020407603 }, "geometry": { "type": "Point", "coordinates": [ 121.540889964225187, 25.025000020407603 ] } },
{ "type": "Feature", "properties": { "name": "臺北市立大安幼兒園", "district": "大安區", "type": "公立", "address": "[106]四維路198巷31弄11號", "telephone": "(02)27551211", "people": "210", "quasi-public": "無", "lng": 121.54592002813979, "lat": 25.02717998578548 }, "geometry": { "type": "Point", "coordinates": [ 121.54592002813979, 25.02717998578548 ] } },
{ "type": "Feature", "properties": { "name": "臺北市和平實驗國民小學附設幼兒園", "district": "大安區", "type": "公立", "address": "[106]敦南街76巷28號", "telephone": "(02)27335900", "people": "60", "quasi-public": "無", "lng": 121.54679996033514, "lat": 25.020709994724356 }, "geometry": { "type": "Point", "coordinates": [ 121.546799960335136, 25.020709994724356 ] } },
{ "type": "Feature", "properties": { "name": "臺北市萬華區西門國民小學附設幼兒園", "district": "萬華區", "type": "公立", "address": "[108]成都路98號", "telephone": "(02)23113519#2103", "people": "166", "quasi-public": "無", "lng": 121.50361999939366, "lat": 25.043190007583789 }, "geometry": { "type": "Point", "coordinates": [ 121.503619999393663, 25.043190007583789 ] } },
{ "type": "Feature", "properties": { "name": "臺北市萬華區大理國民小學附設幼兒園", "district": "萬華區", "type": "公立", "address": "[108]艋舺大道389號", "telephone": "(02)23064311#1150", "people": "152", "quasi-public": "無", "lng": 121.49381996201993, "lat": 25.031179997618864 }, "geometry": { "type": "Point", "coordinates": [ 121.493819962019927, 25.031179997618864 ] } },
{ "type": "Feature", "properties": { "name": "臺北市萬華區西園國民小學附設幼兒園", "district": "萬華區", "type": "公立", "address": "[108]東園街73巷65號", "telephone": "(02)23030257#512", "people": "136", "quasi-public": "無", "lng": 121.49886000039936, "lat": 25.026610016369546 }, "geometry": { "type": "Point", "coordinates": [ 121.498860000399361, 25.026610016369546 ] } },
{ "type": "Feature", "properties": { "name": "臺北市萬華區老松國民小學附設幼兒園", "district": "萬華區", "type": "公立", "address": "[108]桂林路64號", "telephone": "(02)23069908", "people": "152", "quasi-public": "無", "lng": 121.50276001612787, "lat": 25.038059989473808 }, "geometry": { "type": "Point", "coordinates": [ 121.502760016127866, 25.038059989473808 ] } },
{ "type": "Feature", "properties": { "name": "臺北市萬華區龍山國民小學附設幼兒園", "district": "萬華區", "type": "公立", "address": "[108]和平西路3段235號", "telephone": "(02)23082977#771", "people": "106", "quasi-public": "無", "lng": 121.49584997515001, "lat": 25.035629991924225 }, "geometry": { "type": "Point", "coordinates": [ 121.495849975150009, 25.035629991924225 ] } },
{ "type": "Feature", "properties": { "name": "臺北市立南海實驗幼兒園", "district": "萬華區", "type": "公立", "address": "[108]西藏路424號", "telephone": "(02)23022984", "people": "330", "quasi-public": "無", "lng": 121.49771000328366, "lat": 25.029489996391106 }, "geometry": { "type": "Point", "coordinates": [ 121.497710003283657, 25.029489996391106 ] } },
{ "type": "Feature", "properties": { "name": "臺北市萬華區雙園國民小學附設幼兒園", "district": "萬華區", "type": "公立", "address": "[108]莒光路315號", "telephone": "(02)23083511", "people": "106", "quasi-public": "無", "lng": 121.49817997659471, "lat": 25.030939981821433 }, "geometry": { "type": "Point", "coordinates": [ 121.498179976594713, 25.030939981821433 ] } },
{ "type": "Feature", "properties": { "name": "臺北市萬華區萬大國民小學附設幼兒園", "district": "萬華區", "type": "公立", "address": "[108]萬大路346號", "telephone": "(02)23037654#715", "people": "90", "quasi-public": "無", "lng": 121.49934003199422, "lat": 25.02297000727755 }, "geometry": { "type": "Point", "coordinates": [ 121.499340031994222, 25.02297000727755 ] } },
{ "type": "Feature", "properties": { "name": "臺北市萬華區福星國民小學附設幼兒園", "district": "萬華區", "type": "公立", "address": "[108]中華路一段66號", "telephone": "(02)23144668#173", "people": "150", "quasi-public": "無", "lng": 121.50890998612573, "lat": 25.046340010616149 }, "geometry": { "type": "Point", "coordinates": [ 121.50890998612573, 25.046340010616149 ] } },
{ "type": "Feature", "properties": { "name": "臺北市萬華區新和國民小學附設幼兒園", "district": "萬華區", "type": "公立", "address": "[108]西藏路125巷31號", "telephone": "(02)23034240#3601", "people": "166", "quasi-public": "無", "lng": 121.50332998554376, "lat": 25.025999981456437 }, "geometry": { "type": "Point", "coordinates": [ 121.503329985543758, 25.025999981456437 ] } },
{ "type": "Feature", "properties": { "name": "臺北市萬華區華江國民小學附設幼兒園", "district": "萬華區", "type": "公立", "address": "[108]環河南路2段250巷42弄2號", "telephone": "(02)23064352#800", "people": "152", "quasi-public": "無", "lng": 121.49113498697577, "lat": 25.034115004834774 }, "geometry": { "type": "Point", "coordinates": [ 121.491134986975766, 25.034115004834774 ] } },
{ "type": "Feature", "properties": { "name": "臺北市萬華區東園國民小學附設幼兒園", "district": "萬華區", "type": "公立", "address": "[108]東園街195號", "telephone": "(02)23034803#1801", "people": "106", "quasi-public": "無", "lng": 121.49786003935048, "lat": 25.02313999227394 }, "geometry": { "type": "Point", "coordinates": [ 121.497860039350485, 25.02313999227394 ] } },
{ "type": "Feature", "properties": { "name": "臺北市立萬華幼兒園", "district": "萬華區", "type": "公立", "address": "[108]梧州街36號、36號2樓之1", "telephone": "(02)23020936", "people": "150", "quasi-public": "無", "lng": 121.49757182728376, "lat": 25.037471977563875 }, "geometry": { "type": "Point", "coordinates": [ 121.497571827283764, 25.037471977563875 ] } },
{ "type": "Feature", "properties": { "name": "臺北市信義區光復國民小學附設幼兒園", "district": "信義區", "type": "公立", "address": "[110]光復南路271號", "telephone": "(02)27585076#877", "people": "166", "quasi-public": "無", "lng": 121.55781998371606, "lat": 25.040239996761201 }, "geometry": { "type": "Point", "coordinates": [ 121.557819983716058, 25.040239996761201 ] } },
{ "type": "Feature", "properties": { "name": "臺北市信義區福德國民小學附設幼兒園", "district": "信義區", "type": "公立", "address": "[110]褔德街253號", "telephone": "(02)27277992#61", "people": "152", "quasi-public": "無", "lng": 121.56355, "lat": 25.03737 }, "geometry": { "type": "Point", "coordinates": [ 121.56355, 25.03737 ] } },
{ "type": "Feature", "properties": { "name": "臺北市信義區信義國民小學附設幼兒園", "district": "信義區", "type": "公立", "address": "[110]松勤街60號", "telephone": "(02)27204005#871", "people": "180", "quasi-public": "無", "lng": 121.56322002483682, "lat": 25.031830014210115 }, "geometry": { "type": "Point", "coordinates": [ 121.563220024836824, 25.031830014210115 ] } },
{ "type": "Feature", "properties": { "name": "臺北市信義區雙永國民小學附設幼兒園", "district": "信義區", "type": "公立", "address": "[110]松山路287巷5號", "telephone": "(02)87858111#1880", "people": "348", "quasi-public": "無", "lng": 121.5799399938341, "lat": 25.042999989838805 }, "geometry": { "type": "Point", "coordinates": [ 121.579939993834103, 25.042999989838805 ] } },
{ "type": "Feature", "properties": { "name": "臺北市信義區博愛國民小學附設幼兒園", "district": "信義區", "type": "公立", "address": "[110]松仁路95巷20號", "telephone": "(02)23450616#633", "people": "90", "quasi-public": "無", "lng": 121.5711300268635, "lat": 25.036440019047092 }, "geometry": { "type": "Point", "coordinates": [ 121.5711300268635, 25.036440019047092 ] } },
{ "type": "Feature", "properties": { "name": "臺北市信義區吳興國民小學附設幼兒園", "district": "信義區", "type": "公立", "address": "[110]松仁路226號", "telephone": "(02)27200226#71", "people": "136", "quasi-public": "無", "lng": 121.5685899749252, "lat": 25.026009997830727 }, "geometry": { "type": "Point", "coordinates": [ 121.568589974925203, 25.026009997830727 ] } },
{ "type": "Feature", "properties": { "name": "臺北市信義區三興國民小學附設幼兒園", "district": "信義區", "type": "公立", "address": "[110]基隆路二段99號", "telephone": "(02)27368453#10", "people": "182", "quasi-public": "無", "lng": 121.55803003420959, "lat": 25.029709979439957 }, "geometry": { "type": "Point", "coordinates": [ 121.558030034209594, 25.029709979439957 ] } },
{ "type": "Feature", "properties": { "name": "臺北市信義區興雅國民小學附設幼兒園", "district": "信義區", "type": "公立", "address": "[110]基隆路一段83巷9號", "telephone": "(02)27698786#10", "people": "166", "quasi-public": "無", "lng": 121.57006996756888, "lat": 25.046759985874758 }, "geometry": { "type": "Point", "coordinates": [ 121.570069967568884, 25.046759985874758 ] } },
{ "type": "Feature", "properties": { "name": "臺北市立信義幼兒園", "district": "信義區", "type": "公立", "address": "[110]基隆路一段364巷20、24號", "telephone": "(02)27297527", "people": "240", "quasi-public": "無", "lng": 121.55936021280434, "lat": 25.035242720798081 }, "geometry": { "type": "Point", "coordinates": [ 121.559360212804336, 25.035242720798081 ] } },
{ "type": "Feature", "properties": { "name": "臺北市士林區百齡國民小學附設幼兒園", "district": "士林區", "type": "公立", "address": "[111]福港街205號", "telephone": "(02)28817683#880", "people": "226", "quasi-public": "無", "lng": 121.51782003302026, "lat": 25.086190009064126 }, "geometry": { "type": "Point", "coordinates": [ 121.517820033020257, 25.086190009064126 ] } },
{ "type": "Feature", "properties": { "name": "臺北市士林區社子國民小學附設幼兒園", "district": "士林區", "type": "公立", "address": "[111]延平北路六段308號", "telephone": "(02)28151320#10", "people": "226", "quasi-public": "無", "lng": 121.50293997558902, "lat": 25.089800010942767 }, "geometry": { "type": "Point", "coordinates": [ 121.502939975589015, 25.089800010942767 ] } },
{ "type": "Feature", "properties": { "name": "臺北市士林區福林國民小學附設幼兒園", "district": "士林區", "type": "公立", "address": "[111]福志路75號", "telephone": "(02)28316293#206", "people": "106", "quasi-public": "無", "lng": 121.52968998138311, "lat": 25.09868000871441 }, "geometry": { "type": "Point", "coordinates": [ 121.529689981383115, 25.09868000871441 ] } },
{ "type": "Feature", "properties": { "name": "臺北市士林區陽明山國民小學附設幼兒園", "district": "士林區", "type": "公立", "address": "[111]仰德大道三段61號", "telephone": "(02)28616046#163", "people": "76", "quasi-public": "無", "lng": 121.55292000693873, "lat": 25.119820006713184 }, "geometry": { "type": "Point", "coordinates": [ 121.552920006938734, 25.119820006713184 ] } },
{ "type": "Feature", "properties": { "name": "臺北市士林區雨農國民小學附設幼兒園", "district": "士林區", "type": "公立", "address": "[111]忠義街1號", "telephone": "(02)28329700#129", "people": "120", "quasi-public": "無", "lng": 121.52993003909006, "lat": 25.105290019468072 }, "geometry": { "type": "Point", "coordinates": [ 121.529930039090061, 25.105290019468072 ] } },
{ "type": "Feature", "properties": { "name": "臺北市士林區文昌國民小學附設幼兒園", "district": "士林區", "type": "公立", "address": "[111]文林路615巷20號", "telephone": "(02)28365411#170", "people": "106", "quasi-public": "無", "lng": 121.52091002162587, "lat": 25.099609980871719 }, "geometry": { "type": "Point", "coordinates": [ 121.520910021625866, 25.099609980871719 ] } },
{ "type": "Feature", "properties": { "name": "臺北市士林區芝山國民小學附設幼兒園", "district": "士林區", "type": "公立", "address": "[111]德行東路285號", "telephone": "(02)28348111#10", "people": "212", "quasi-public": "無", "lng": 121.53643003736454, "lat": 25.110380013990394 }, "geometry": { "type": "Point", "coordinates": [ 121.536430037364539, 25.110380013990394 ] } },
{ "type": "Feature", "properties": { "name": "臺北市士林區富安國民小學附設幼兒園", "district": "士林區", "type": "公立", "address": "[111]延平北路八段135號", "telephone": "(02)28103192#125", "people": "106", "quasi-public": "無", "lng": 121.4824299614329, "lat": 25.105850014419218 }, "geometry": { "type": "Point", "coordinates": [ 121.482429961432899, 25.105850014419218 ] } },
{ "type": "Feature", "properties": { "name": "臺北市士林區士林國民小學附設幼兒園", "district": "士林區", "type": "公立", "address": "[111]大東路165號", "telephone": "(02)28812231#254", "people": "152", "quasi-public": "無", "lng": 121.52506996017183, "lat": 25.09282001065688 }, "geometry": { "type": "Point", "coordinates": [ 121.525069960171834, 25.09282001065688 ] } },
{ "type": "Feature", "properties": { "name": "臺北市士林區雨聲國民小學附設幼兒園", "district": "士林區", "type": "公立", "address": "[111]至誠路一段62巷70號", "telephone": "(02)28311420#266", "people": "152", "quasi-public": "無", "lng": 121.53554154128039, "lat": 25.103666647494236 }, "geometry": { "type": "Point", "coordinates": [ 121.535541541280395, 25.103666647494236 ] } },
{ "type": "Feature", "properties": { "name": "臺北市士林區雙溪國民小學附設幼兒園", "district": "士林區", "type": "公立", "address": "[111]中社路二段66號", "telephone": "(02)28411038#21", "people": "30", "quasi-public": "無", "lng": 121.56382000146613, "lat": 25.106089988307133 }, "geometry": { "type": "Point", "coordinates": [ 121.563820001466127, 25.106089988307133 ] } },
{ "type": "Feature", "properties": { "name": "臺北市士林區劍潭國民小學附設幼兒園", "district": "士林區", "type": "公立", "address": "[111]通河街16號", "telephone": "(02)28853564#111", "people": "136", "quasi-public": "無", "lng": 121.52296995815027, "lat": 25.079940001051838 }, "geometry": { "type": "Point", "coordinates": [ 121.52296995815027, 25.079940001051838 ] } },
{ "type": "Feature", "properties": { "name": "臺北市士林區蘭雅國民小學附設幼兒園", "district": "士林區", "type": "公立", "address": "[111]磺溪街57號", "telephone": "(02)28328086#17", "people": "166", "quasi-public": "無", "lng": 121.52315000143051, "lat": 25.108399998912773 }, "geometry": { "type": "Point", "coordinates": [ 121.523150001430508, 25.108399998912773 ] } },
{ "type": "Feature", "properties": { "name": "臺北市士林區士東國民小學附設幼兒園", "district": "士林區", "type": "公立", "address": "[111]中山北路6段392號", "telephone": "(02)28710064#267", "people": "90", "quasi-public": "無", "lng": 121.52680995945207, "lat": 25.112969980162092 }, "geometry": { "type": "Point", "coordinates": [ 121.526809959452066, 25.112969980162092 ] } },
{ "type": "Feature", "properties": { "name": "臺北市士林區葫蘆國民小學附設幼兒園", "district": "士林區", "type": "公立", "address": "[111]環河北路3段95號", "telephone": "(02)28129586#871", "people": "136", "quasi-public": "無", "lng": 121.50703000906253, "lat": 25.083749995140238 }, "geometry": { "type": "Point", "coordinates": [ 121.507030009062532, 25.083749995140238 ] } },
{ "type": "Feature", "properties": { "name": "臺北市士林區平等國民小學附設幼兒園", "district": "士林區", "type": "公立", "address": "[111]平菁街101號", "telephone": "(02)28610503#121", "people": "30", "quasi-public": "無", "lng": 121.57630995920687, "lat": 25.129069981690989 }, "geometry": { "type": "Point", "coordinates": [ 121.576309959206867, 25.129069981690989 ] } },
{ "type": "Feature", "properties": { "name": "臺北市立士林幼兒園", "district": "士林區", "type": "公立", "address": "[111]通河街179巷2號", "telephone": "(02)28853842", "people": "150", "quasi-public": "無", "lng": 121.51951996680327, "lat": 25.081760005597843 }, "geometry": { "type": "Point", "coordinates": [ 121.519519966803273, 25.081760005597843 ] } },
{ "type": "Feature", "properties": { "name": "臺北市士林區溪山國民小學附設幼兒園", "district": "士林區", "type": "公立", "address": "[111]至善路三段199號", "telephone": "(02)28411010#123", "people": "30", "quasi-public": "無", "lng": 121.57961997277084, "lat": 25.119789999499815 }, "geometry": { "type": "Point", "coordinates": [ 121.579619972770843, 25.119789999499815 ] } },
{ "type": "Feature", "properties": { "name": "臺北市立臺北特殊教育學校幼兒部", "district": "士林區", "type": "公立", "address": "[111]忠誠路2段207巷3號", "telephone": "(02)28749117", "people": "0", "quasi-public": "無", "lng": 121.53635996465403, "lat": 25.116550016736866 }, "geometry": { "type": "Point", "coordinates": [ 121.536359964654025, 25.116550016736866 ] } },
{ "type": "Feature", "properties": { "name": "臺北市立啟明學校幼兒部", "district": "士林區", "type": "公立", "address": "[111]忠誠路2段207巷1號", "telephone": "(02)28740670", "people": "0", "quasi-public": "無", "lng": 121.53522002582218, "lat": 25.116540000362576 }, "geometry": { "type": "Point", "coordinates": [ 121.535220025822184, 25.116540000362576 ] } },
{ "type": "Feature", "properties": { "name": "臺北市湖田實驗國民小學附設幼兒園", "district": "北投區", "type": "公立", "address": "[112]竹子湖路17之2號", "telephone": "(02)28616963#50", "people": "30", "quasi-public": "無", "lng": 121.54005998817274, "lat": 25.168320003509677 }, "geometry": { "type": "Point", "coordinates": [ 121.540059988172743, 25.168320003509677 ] } },
{ "type": "Feature", "properties": { "name": "臺北市北投區立農國民小學附設幼兒園", "district": "北投區", "type": "公立", "address": "[112]立農街一段250號", "telephone": "(02)28210702#600", "people": "120", "quasi-public": "無", "lng": 121.50530995871185, "lat": 25.119460003971795 }, "geometry": { "type": "Point", "coordinates": [ 121.505309958711848, 25.119460003971795 ] } },
{ "type": "Feature", "properties": { "name": "臺北市北投區逸仙國民小學附設幼兒園", "district": "北投區", "type": "公立", "address": "[112]新民路2號", "telephone": "(02)28957073", "people": "182", "quasi-public": "無", "lng": 121.50499999593245, "lat": 25.138209986099142 }, "geometry": { "type": "Point", "coordinates": [ 121.504999995932451, 25.138209986099142 ] } },
{ "type": "Feature", "properties": { "name": "臺北市北投區文林國民小學附設幼兒園", "district": "北投區", "type": "公立", "address": "[112]文林北路155號", "telephone": "(02)28234212#800", "people": "166", "quasi-public": "無", "lng": 121.51474001887942, "lat": 25.105930019685033 }, "geometry": { "type": "Point", "coordinates": [ 121.514740018879422, 25.105930019685033 ] } },
{ "type": "Feature", "properties": { "name": "臺北市北投區石牌國民小學附設幼兒園", "district": "北投區", "type": "公立", "address": "[112]致遠二路80號", "telephone": "(02)28227484#170", "people": "210", "quasi-public": "無", "lng": 121.51271000574934, "lat": 25.114340002236119 }, "geometry": { "type": "Point", "coordinates": [ 121.512710005749341, 25.114340002236119 ] } },
{ "type": "Feature", "properties": { "name": "臺北市北投區義方國民小學附設幼兒園", "district": "北投區", "type": "公立", "address": "[112]珠海路155號", "telephone": "(02)28917433#271", "people": "106", "quasi-public": "無", "lng": 121.50979997660488, "lat": 25.141930000456952 }, "geometry": { "type": "Point", "coordinates": [ 121.509799976604882, 25.141930000456952 ] } },
{ "type": "Feature", "properties": { "name": "臺北市北投區文化國民小學附設幼兒園", "district": "北投區", "type": "公立", "address": "[112]文化三路1號", "telephone": "(02)28933828#7106", "people": "60", "quasi-public": "無", "lng": 121.49668003502148, "lat": 25.137079979822545 }, "geometry": { "type": "Point", "coordinates": [ 121.496680035021484, 25.137079979822545 ] } },
{ "type": "Feature", "properties": { "name": "臺北市北投區明德國民小學附設幼兒園", "district": "北投區", "type": "公立", "address": "[112]明德路190號", "telephone": "(02)28229651#1501", "people": "152", "quasi-public": "無", "lng": 121.52180001210507, "lat": 25.112140004109662 }, "geometry": { "type": "Point", "coordinates": [ 121.521800012105075, 25.112140004109662 ] } },
{ "type": "Feature", "properties": { "name": "臺北市北投區北投國民小學附設幼兒園", "district": "北投區", "type": "公立", "address": "[112]中央北路一段73號", "telephone": "(02)28912052#266", "people": "212", "quasi-public": "無", "lng": 121.50029003690008, "lat": 25.13418998342668 }, "geometry": { "type": "Point", "coordinates": [ 121.500290036900083, 25.13418998342668 ] } },
{ "type": "Feature", "properties": { "name": "臺北市北投區關渡國民小學附設幼兒園", "district": "北投區", "type": "公立", "address": "[112]中央北路四段581號", "telephone": "(02)28912847#861", "people": "166", "quasi-public": "無", "lng": 121.46684004062172, "lat": 25.126860009099758 }, "geometry": { "type": "Point", "coordinates": [ 121.466840040621719, 25.126860009099758 ] } },
{ "type": "Feature", "properties": { "name": "臺北市北投區清江國民小學附設幼兒園", "district": "北投區", "type": "公立", "address": "[112]公館路220號", "telephone": "(02)28912764#600", "people": "136", "quasi-public": "無", "lng": 121.50766996736996, "lat": 25.126869983564532 }, "geometry": { "type": "Point", "coordinates": [ 121.507669967369964, 25.126869983564532 ] } },
{ "type": "Feature", "properties": { "name": "臺北市泉源實驗國民小學附設幼兒園", "district": "北投區", "type": "公立", "address": "[112]東昇路34號", "telephone": "(02)28951258#161", "people": "30", "quasi-public": "無", "lng": 121.52420000244126, "lat": 25.149180011427575 }, "geometry": { "type": "Point", "coordinates": [ 121.524200002441262, 25.149180011427575 ] } },
{ "type": "Feature", "properties": { "name": "臺北市北投區大屯國民小學附設幼兒園", "district": "北投區", "type": "公立", "address": "[112]復興三路312號", "telephone": "(02)28914353#31", "people": "30", "quasi-public": "無", "lng": 121.50427999044967, "lat": 25.154719988421874 }, "geometry": { "type": "Point", "coordinates": [ 121.504279990449675, 25.154719988421874 ] } },
{ "type": "Feature", "properties": { "name": "臺北市北投區桃源國民小學附設幼兒園", "district": "北投區", "type": "公立", "address": "[112]中央北路三段40巷45號", "telephone": "(02)28941208#502", "people": "60", "quasi-public": "無", "lng": 121.48451001452491, "lat": 25.13963998069039 }, "geometry": { "type": "Point", "coordinates": [ 121.484510014524915, 25.13963998069039 ] } },
{ "type": "Feature", "properties": { "name": "臺北市北投區湖山國民小學附設幼兒園", "district": "北投區", "type": "公立", "address": "[112]湖底路11號", "telephone": "(02)28610259#140", "people": "30", "quasi-public": "無", "lng": 121.53549000692345, "lat": 25.14997998026665 }, "geometry": { "type": "Point", "coordinates": [ 121.535490006923453, 25.14997998026665 ] } },
{ "type": "Feature", "properties": { "name": "臺北市立北投幼兒園", "district": "北投區", "type": "公立", "address": "[112]明德路208巷5號", "telephone": "(02)28237022", "people": "150", "quasi-public": "無", "lng": 121.52265999537087, "lat": 25.113179988746154 }, "geometry": { "type": "Point", "coordinates": [ 121.522659995370873, 25.113179988746154 ] } },
{ "type": "Feature", "properties": { "name": "臺北市內湖區康寧國民小學附設幼兒園", "district": "內湖區", "type": "公立", "address": "[114]星雲街121號", "telephone": "(02)27901237#160", "people": "166", "quasi-public": "無", "lng": 121.59493999629979, "lat": 25.080029980782427 }, "geometry": { "type": "Point", "coordinates": [ 121.594939996299786, 25.080029980782427 ] } },
{ "type": "Feature", "properties": { "name": "臺北市內湖區西湖國民小學附設幼兒園", "district": "內湖區", "type": "公立", "address": "[114]環山路一段25號", "telephone": "(02)27997447#181", "people": "106", "quasi-public": "無", "lng": 121.56568002959978, "lat": 25.083799993192684 }, "geometry": { "type": "Point", "coordinates": [ 121.565680029599775, 25.083799993192684 ] } },
{ "type": "Feature", "properties": { "name": "臺北市內湖區南湖國民小學附設幼兒園", "district": "內湖區", "type": "公立", "address": "[114]康寧路三段200號", "telephone": "(02)26321296#71", "people": "196", "quasi-public": "無", "lng": 121.61184000857725, "lat": 25.068079985244239 }, "geometry": { "type": "Point", "coordinates": [ 121.611840008577246, 25.068079985244239 ] } },
{ "type": "Feature", "properties": { "name": "臺北市內湖區麗山國民小學附設幼兒園", "district": "內湖區", "type": "公立", "address": "[114]港華街100號", "telephone": "(02)26574158#718", "people": "196", "quasi-public": "無", "lng": 121.57245998344035, "lat": 25.083500004878033 }, "geometry": { "type": "Point", "coordinates": [ 121.572459983440353, 25.083500004878033 ] } },
{ "type": "Feature", "properties": { "name": "臺北市內湖區新湖國民小學附設幼兒園", "district": "內湖區", "type": "公立", "address": "[114]民權東路六段138號", "telephone": "(02)27963721#130", "people": "196", "quasi-public": "無", "lng": 121.58872003741038, "lat": 25.068819981566079 }, "geometry": { "type": "Point", "coordinates": [ 121.588720037410383, 25.068819981566079 ] } },
{ "type": "Feature", "properties": { "name": "臺北市內湖區潭美國民小學附設幼兒園", "district": "內湖區", "type": "公立", "address": "[114]行善路179號", "telephone": "(02)27917334#271", "people": "76", "quasi-public": "無", "lng": 121.58122996873277, "lat": 25.059129998581085 }, "geometry": { "type": "Point", "coordinates": [ 121.581229968732771, 25.059129998581085 ] } },
{ "type": "Feature", "properties": { "name": "臺北市內湖區東湖國民小學附設幼兒園", "district": "內湖區", "type": "公立", "address": "[114]東湖路115號", "telephone": "(02)26339984#226", "people": "212", "quasi-public": "無", "lng": 121.61578998044871, "lat": 25.068539984090506 }, "geometry": { "type": "Point", "coordinates": [ 121.61578998044871, 25.068539984090506 ] } },
{ "type": "Feature", "properties": { "name": "臺北市內湖區內湖國民小學附設幼兒園", "district": "內湖區", "type": "公立", "address": "[114]內湖路二段41號1樓", "telephone": "(02)27970237#3401", "people": "120", "quasi-public": "無", "lng": 121.59348003640469, "lat": 25.084610020315552 }, "geometry": { "type": "Point", "coordinates": [ 121.593480036404685, 25.084610020315552 ] } },
{ "type": "Feature", "properties": { "name": "臺北市內湖區文湖國民小學附設幼兒園", "district": "內湖區", "type": "公立", "address": "[114]文湖街15號", "telephone": "(02)26583515#1030", "people": "182", "quasi-public": "無", "lng": 121.56013003623121, "lat": 25.085819989948448 }, "geometry": { "type": "Point", "coordinates": [ 121.560130036231214, 25.085819989948448 ] } },
{ "type": "Feature", "properties": { "name": "臺北市內湖區麗湖國民小學附設幼兒園", "district": "內湖區", "type": "公立", "address": "[114]金湖路363巷8號", "telephone": "(02)26343888#600", "people": "166", "quasi-public": "無", "lng": 121.60114998072441, "lat": 25.072990020305383 }, "geometry": { "type": "Point", "coordinates": [ 121.601149980724415, 25.072990020305383 ] } },
{ "type": "Feature", "properties": { "name": "臺北市內湖區大湖國民小學附設幼兒園", "district": "內湖區", "type": "公立", "address": "[114]大湖山莊街170號", "telephone": "(02)27915870#710", "people": "152", "quasi-public": "無", "lng": 121.6003599863501, "lat": 25.088160007767456 }, "geometry": { "type": "Point", "coordinates": [ 121.600359986350099, 25.088160007767456 ] } },
{ "type": "Feature", "properties": { "name": "臺北市內湖區明湖國民小學附設幼兒園", "district": "內湖區", "type": "公立", "address": "[114]康寧路三段105號1樓", "telephone": "(02)26323477#50", "people": "90", "quasi-public": "無", "lng": 121.61056998260813, "lat": 25.071090010493563 }, "geometry": { "type": "Point", "coordinates": [ 121.610569982608126, 25.071090010493563 ] } },
{ "type": "Feature", "properties": { "name": "臺北市內湖區碧湖國民小學附設幼兒園", "district": "內湖區", "type": "公立", "address": "[114]金龍路100號", "telephone": "(02)27916283#191", "people": "152", "quasi-public": "無", "lng": 121.59109999499799, "lat": 25.08530001858496 }, "geometry": { "type": "Point", "coordinates": [ 121.59109999499799, 25.08530001858496 ] } },
{ "type": "Feature", "properties": { "name": "臺北市立內湖幼兒園", "district": "內湖區", "type": "公立", "address": "[114]陽光街265巷9號", "telephone": "(02)27973504", "people": "212", "quasi-public": "無", "lng": 121.58071003927881, "lat": 25.073730016627223 }, "geometry": { "type": "Point", "coordinates": [ 121.580710039278813, 25.073730016627223 ] } },
{ "type": "Feature", "properties": { "name": "臺北市南港區東新國民小學附設幼兒園", "district": "南港區", "type": "公立", "address": "[115]興南街62號", "telephone": "(02)27837577#3100", "people": "106", "quasi-public": "無", "lng": 121.60205002948737, "lat": 25.056190004132773 }, "geometry": { "type": "Point", "coordinates": [ 121.602050029487373, 25.056190004132773 ] } },
{ "type": "Feature", "properties": { "name": "臺北市南港區修德國民小學附設幼兒園", "district": "南港區", "type": "公立", "address": "[115]東新街118巷86號", "telephone": "(02)27880500#202", "people": "166", "quasi-public": "無", "lng": 121.58964003510289, "lat": 25.045539999867572 }, "geometry": { "type": "Point", "coordinates": [ 121.589640035102889, 25.045539999867572 ] } },
{ "type": "Feature", "properties": { "name": "臺北市南港區南港國民小學附設幼兒園", "district": "南港區", "type": "公立", "address": "[115]惠民街67號", "telephone": "(02)27834678#1902", "people": "106", "quasi-public": "無", "lng": 121.61035004146879, "lat": 25.057060003772875 }, "geometry": { "type": "Point", "coordinates": [ 121.610350041468791, 25.057060003772875 ] } },
{ "type": "Feature", "properties": { "name": "臺北市南港區玉成國民小學附設幼兒園", "district": "南港區", "type": "公立", "address": "[115]向陽路31號", "telephone": "(02)27836049#190", "people": "152", "quasi-public": "無", "lng": 121.59476003683858, "lat": 25.053610012425864 }, "geometry": { "type": "Point", "coordinates": [ 121.594760036838579, 25.053610012425864 ] } },
{ "type": "Feature", "properties": { "name": "臺北市南港區成德國民小學附設幼兒園", "district": "南港區", "type": "公立", "address": "[115]東新街65號", "telephone": "(02)27853856#10", "people": "166", "quasi-public": "無", "lng": 121.58691021687673, "lat": 25.046888228993339 }, "geometry": { "type": "Point", "coordinates": [ 121.586910216876731, 25.046888228993339 ] } },
{ "type": "Feature", "properties": { "name": "臺北市立南港幼兒園", "district": "南港區", "type": "公立", "address": "[115]重陽路199巷28號", "telephone": "(02)27825081", "people": "150", "quasi-public": "無", "lng": 121.59900002255989, "lat": 25.057789983720426 }, "geometry": { "type": "Point", "coordinates": [ 121.599000022559892, 25.057789983720426 ] } },
{ "type": "Feature", "properties": { "name": "臺北市南港區舊莊國民小學附設幼兒園", "district": "南港區", "type": "公立", "address": "[115]舊莊街1段100號", "telephone": "(02)27821418#180", "people": "166", "quasi-public": "無", "lng": 121.61956996732374, "lat": 25.040259987600265 }, "geometry": { "type": "Point", "coordinates": [ 121.619569967323741, 25.040259987600265 ] } },
{ "type": "Feature", "properties": { "name": "臺北市文山區景美國民小學附設幼兒園", "district": "文山區", "type": "公立", "address": "[116]景文街108號", "telephone": "(02)29322151#280", "people": "120", "quasi-public": "無", "lng": 121.54077001919075, "lat": 24.989440005733371 }, "geometry": { "type": "Point", "coordinates": [ 121.540770019190745, 24.989440005733371 ] } },
{ "type": "Feature", "properties": { "name": "臺北市文山區溪口國民小學附設幼兒園", "district": "文山區", "type": "公立", "address": "[116]景福街225號", "telephone": "(02)29350955#760", "people": "136", "quasi-public": "無", "lng": 121.53874998052544, "lat": 24.994070001409426 }, "geometry": { "type": "Point", "coordinates": [ 121.538749980525438, 24.994070001409426 ] } },
{ "type": "Feature", "properties": { "name": "臺北市文山區志清國民小學附設幼兒園", "district": "文山區", "type": "公立", "address": "[116]景福街21巷5號", "telephone": "(02)29323875#572", "people": "90", "quasi-public": "無", "lng": 121.5383700288545, "lat": 24.999059999826855 }, "geometry": { "type": "Point", "coordinates": [ 121.538370028854501, 24.999059999826855 ] } },
{ "type": "Feature", "properties": { "name": "臺北市文山區武功國民小學附設幼兒園", "district": "文山區", "type": "公立", "address": "[116]興隆路一段68號", "telephone": "(02)29314360#22", "people": "120", "quasi-public": "無", "lng": 121.54048997980567, "lat": 25.003880013247894 }, "geometry": { "type": "Point", "coordinates": [ 121.54048997980567, 25.003880013247894 ] } },
{ "type": "Feature", "properties": { "name": "臺北市文山區興德國民小學附設幼兒園", "district": "文山區", "type": "公立", "address": "[116]興隆路2段235號", "telephone": "(02)29329431#65", "people": "30", "quasi-public": "無", "lng": 121.55081003045234, "lat": 25.001639991533779 }, "geometry": { "type": "Point", "coordinates": [ 121.55081003045234, 25.001639991533779 ] } },
{ "type": "Feature", "properties": { "name": "臺北市文山區興華國民小學附設幼兒園", "district": "文山區", "type": "公立", "address": "[116]興隆路3段125巷6號", "telephone": "(02)22393070#170", "people": "106", "quasi-public": "無", "lng": 121.55854996366361, "lat": 24.998580010141509 }, "geometry": { "type": "Point", "coordinates": [ 121.558549963663609, 24.998580010141509 ] } },
{ "type": "Feature", "properties": { "name": "臺北市文山區景興國民小學附設幼兒園", "district": "文山區", "type": "公立", "address": "[116]景華街150巷21號", "telephone": "(02)29329439#780", "people": "152", "quasi-public": "無", "lng": 121.54819998962256, "lat": 24.996079981790899 }, "geometry": { "type": "Point", "coordinates": [ 121.54819998962256, 24.996079981790899 ] } },
{ "type": "Feature", "properties": { "name": "臺北市文山區興隆國民小學附設幼兒園", "district": "文山區", "type": "公立", "address": "[116]福興路2號", "telephone": "(02)29323131#115", "people": "166", "quasi-public": "無", "lng": 121.55191996207083, "lat": 25.002409995068987 }, "geometry": { "type": "Point", "coordinates": [ 121.551919962070826, 25.002409995068987 ] } },
{ "type": "Feature", "properties": { "name": "臺北市文山區明道國民小學附設幼兒園", "district": "文山區", "type": "公立", "address": "[116]木柵路2段138巷61號", "telephone": "(02)29392821#171", "people": "76", "quasi-public": "無", "lng": 121.56330996265791, "lat": 24.986999991809483 }, "geometry": { "type": "Point", "coordinates": [ 121.563309962657911, 24.986999991809483 ] } },
{ "type": "Feature", "properties": { "name": "臺北市文山區木柵國民小學附設幼兒園", "district": "文山區", "type": "公立", "address": "[116]木柵路3段191號", "telephone": "(02)29391234#810", "people": "120", "quasi-public": "無", "lng": 121.56985002642955, "lat": 24.990000000684518 }, "geometry": { "type": "Point", "coordinates": [ 121.569850026429549, 24.990000000684518 ] } },
{ "type": "Feature", "properties": { "name": "臺北市博嘉實驗國民小學附設幼兒園", "district": "文山區", "type": "公立", "address": "[116]木柵路4段159巷14號之1", "telephone": "(02)22302585#163", "people": "90", "quasi-public": "無", "lng": 121.57540001979817, "lat": 25.000689986627876 }, "geometry": { "type": "Point", "coordinates": [ 121.575400019798167, 25.000689986627876 ] } },
{ "type": "Feature", "properties": { "name": "臺北市指南實驗國民小學附設幼兒園", "district": "文山區", "type": "公立", "address": "[116]指南路3段38巷5之2號", "telephone": "(02)29393546#601", "people": "30", "quasi-public": "無", "lng": 121.58295001908346, "lat": 24.977479993820879 }, "geometry": { "type": "Point", "coordinates": [ 121.582950019083455, 24.977479993820879 ] } },
{ "type": "Feature", "properties": { "name": "臺北市文山區萬芳國民小學附設幼兒園", "district": "文山區", "type": "公立", "address": "[116]萬和街1號", "telephone": "(02)22301232#816", "people": "196", "quasi-public": "無", "lng": 121.5675699811278, "lat": 25.001309996005759 }, "geometry": { "type": "Point", "coordinates": [ 121.567569981127804, 25.001309996005759 ] } },
{ "type": "Feature", "properties": { "name": "臺北市文山區萬興國民小學附設幼兒園", "district": "文山區", "type": "公立", "address": "[116]秀明路2段114號", "telephone": "(02)29381721#180", "people": "60", "quasi-public": "無", "lng": 121.57662998027013, "lat": 24.990429992317416 }, "geometry": { "type": "Point", "coordinates": [ 121.576629980270127, 24.990429992317416 ] } },
{ "type": "Feature", "properties": { "name": "臺北市文山區力行國民小學附設幼兒園", "district": "文山區", "type": "公立", "address": "[116]木新路三段155巷7號", "telephone": "(02)29383606#751", "people": "150", "quasi-public": "無", "lng": 121.56099999396179, "lat": 24.980909994328812 }, "geometry": { "type": "Point", "coordinates": [ 121.560999993961786, 24.980909994328812 ] } },
{ "type": "Feature", "properties": { "name": "臺北市文山區萬福國民小學附設幼兒園", "district": "文山區", "type": "公立", "address": "[116]羅斯福路5段170巷32號", "telephone": "(02)29353123#173", "people": "136", "quasi-public": "無", "lng": 121.53674000014399, "lat": 25.004820001779507 }, "geometry": { "type": "Point", "coordinates": [ 121.536740000143993, 25.004820001779507 ] } },
{ "type": "Feature", "properties": { "name": "臺北市文山區辛亥國民小學附設幼兒園", "district": "文山區", "type": "公立", "address": "[116]辛亥路4段103號", "telephone": "(02)89321312", "people": "76", "quasi-public": "無", "lng": 121.55854996366361, "lat": 25.006280003584124 }, "geometry": { "type": "Point", "coordinates": [ 121.558549963663609, 25.006280003584124 ] } },
{ "type": "Feature", "properties": { "name": "臺北市立文山幼兒園", "district": "文山區", "type": "公立", "address": "[116]興隆路4段103號及105巷1號", "telephone": "(02)29395526#11", "people": "240", "quasi-public": "無", "lng": 121.56287306116272, "lat": 24.98786106616075 }, "geometry": { "type": "Point", "coordinates": [ 121.562873061162719, 24.98786106616075 ] } },
{ "type": "Feature", "properties": { "name": "國立政治大學附設實驗國民小學附設幼兒園", "district": "文山區", "type": "公立", "address": "[116]指南路二段64號", "telephone": "(02)29393091#80105", "people": "90", "quasi-public": "無", "lng": 121.57651003523569, "lat": 24.987409992603304 }, "geometry": { "type": "Point", "coordinates": [ 121.576510035235685, 24.987409992603304 ] } },
{ "type": "Feature", "properties": { "name": "臺北市立文山特殊教育學校幼兒部", "district": "文山區", "type": "公立", "address": "[116]秀明路1段169號", "telephone": "(02)86615183", "people": "0", "quasi-public": "無", "lng": 121.56924996598121, "lat": 24.991499984167277 }, "geometry": { "type": "Point", "coordinates": [ 121.569249965981214, 24.991499984167277 ] } }
]
}
