{
"type": "FeatureCollection",
"crs": { "type": "name", "properties": { "name": "urn:ogc:def:crs:OGC:1.3:CRS84" } },
"features": [
{ "type": "Feature", "properties": { "name": "臺北市私立南門幼兒園", "district": "中正區", "type": "私立", "address": "[100]重慶南路三段27巷4號1樓", "telephone": "(02)23910571", "people": "35", "quasi-public": "無", "lng": 121.51718356999503, "lat": 25.028972011745662 }, "geometry": { "type": "Point", "coordinates": [ 121.517183569995026, 25.028972011745662 ] } },
{ "type": "Feature", "properties": { "name": "財團法人中華基督教衛理公會附設臺北市私立城中衛理幼兒園", "district": "中正區", "type": "私立", "address": "[100]寧波東街9巷4號、6號1樓", "telephone": "(02)23952273", "people": "90", "quasi-public": "110-112 符合", "lng": 121.5200580598208, "lat": 25.032641866097929 }, "geometry": { "type": "Point", "coordinates": [ 121.520058059820798, 25.032641866097929 ] } },
{ "type": "Feature", "properties": { "name": "財團法人台北市私立強恕高級中學附設臺北市私立幼兒園", "district": "中正區", "type": "私立", "address": "[100]汀州路二段143號1樓", "telephone": "(02)23680818", "people": "150", "quasi-public": "無", "lng": 121.52016998339451, "lat": 25.024860000715066 }, "geometry": { "type": "Point", "coordinates": [ 121.52016998339451, 25.024860000715066 ] } },
{ "type": "Feature", "properties": { "name": "臺北市私立傑瑞富幼兒園", "district": "中正區", "type": "私立", "address": "[100]忠孝東路一段9號2樓", "telephone": "(02)5582-5168#0208", "people": "54", "quasi-public": "無", "lng": 121.52450494295707, "lat": 25.044433361956077 }, "geometry": { "type": "Point", "coordinates": [ 121.524504942957066, 25.044433361956077 ] } },
{ "type": "Feature", "properties": { "name": "臺北市私立聯華幼兒園", "district": "中正區", "type": "私立", "address": "[100]南海路110之1號1樓", "telephone": "(02)23078855", "people": "90", "quasi-public": "無", "lng": 121.50811999175147, "lat": 25.027929998481611 }, "geometry": { "type": "Point", "coordinates": [ 121.508119991751471, 25.027929998481611 ] } },
{ "type": "Feature", "properties": { "name": "臺北市私立中正區清華幼兒園", "district": "中正區", "type": "私立", "address": "[100]貴陽街一段58號", "telephone": "(02)23118221", "people": "180", "quasi-public": "無", "lng": 121.50933997775866, "lat": 25.038860000222385 }, "geometry": { "type": "Point", "coordinates": [ 121.509339977758657, 25.038860000222385 ] } },
{ "type": "Feature", "properties": { "name": "臺北市私立寶貝幼兒園", "district": "中正區", "type": "私立", "address": "[100]寧波西街181巷44號1、2樓", "telephone": "(02)23053874", "people": "31", "quasi-public": "110-112 符合", "lng": 121.50962999160851, "lat": 25.026389991411193 }, "geometry": { "type": "Point", "coordinates": [ 121.509629991608506, 25.026389991411193 ] } },
{ "type": "Feature", "properties": { "name": "法務部附設臺北市私立員工子女幼兒園", "district": "中正區", "type": "私立", "address": "[100]重慶南路1段136巷2號1樓", "telephone": "(02)23713445", "people": "90", "quasi-public": "112-112 符合", "lng": 121.51241999189949, "lat": 25.036210019623965 }, "geometry": { "type": "Point", "coordinates": [ 121.512419991899492, 25.036210019623965 ] } },
{ "type": "Feature", "properties": { "name": "國立臺灣大學醫學院附設醫院附設臺北市私立員工子女幼兒園", "district": "中正區", "type": "私立", "address": "[100]常德街1號1樓", "telephone": "(02)23123456#67384", "people": "200", "quasi-public": "無", "lng": 121.51668850816951, "lat": 25.041198841092296 }, "geometry": { "type": "Point", "coordinates": [ 121.516688508169509, 25.041198841092296 ] } },
{ "type": "Feature", "properties": { "name": "臺北市私立蒙特梭利童圓幼兒園", "district": "中正區", "type": "私立", "address": "[100]濟南路二段54-1號1至2樓", "telephone": "(02)23957517", "people": "60", "quasi-public": "無", "lng": 121.53148002062528, "lat": 25.040200015083045 }, "geometry": { "type": "Point", "coordinates": [ 121.531480020625281, 25.040200015083045 ] } },
{ "type": "Feature", "properties": { "name": "臺北市私立巨勝幼兒園", "district": "中正區", "type": "私立", "address": "[100]金山南路一段67巷8號1、2樓及8之1號1樓", "telephone": "(02)23936965", "people": "68", "quasi-public": "無", "lng": 121.52917792249198, "lat": 25.03774588054219 }, "geometry": { "type": "Point", "coordinates": [ 121.529177922491982, 25.03774588054219 ] } },
{ "type": "Feature", "properties": { "name": "臺灣高等法院附設臺北市私立員工子女幼兒園", "district": "中正區", "type": "私立", "address": "[100]重慶南路一段136巷4號1樓", "telephone": "(02)23319976", "people": "60", "quasi-public": "110-112 符合", "lng": 121.51189000416167, "lat": 25.036260017676398 }, "geometry": { "type": "Point", "coordinates": [ 121.511890004161671, 25.036260017676398 ] } },
{ "type": "Feature", "properties": { "name": "財團法人信誼基金會附設臺北市私立實驗幼兒園", "district": "中正區", "type": "私立", "address": "[100]重慶南路二段75號2樓", "telephone": "(02)23965305#1023", "people": "64", "quasi-public": "無", "lng": 121.51537997718685, "lat": 25.029960011611678 }, "geometry": { "type": "Point", "coordinates": [ 121.515379977186853, 25.029960011611678 ] } },
{ "type": "Feature", "properties": { "name": "臺北市私立涵鈺新天地幼兒園", "district": "中正區", "type": "私立", "address": "[100]林森南路12號3樓之1", "telephone": "(02)23576386", "people": "30", "quasi-public": "110-112 符合", "lng": 121.51903529199316, "lat": 25.033539096422295 }, "geometry": { "type": "Point", "coordinates": [ 121.519035291993163, 25.033539096422295 ] } },
{ "type": "Feature", "properties": { "name": "臺北市私立智寶園幼兒園", "district": "中正區", "type": "私立", "address": "[100]羅斯福路2段50號2樓之1及2樓之2", "telephone": "(02)23560362", "people": "39", "quasi-public": "112-112 符合", "lng": 121.52158996161148, "lat": 25.02784999321581 }, "geometry": { "type": "Point", "coordinates": [ 121.521589961611483, 25.02784999321581 ] } },
{ "type": "Feature", "properties": { "name": "臺北市私立百家姓幼兒園", "district": "中正區", "type": "私立", "address": "[100]延平南路248巷3號1樓及中華路二段75巷22號1樓", "telephone": "(02)23816725", "people": "40", "quasi-public": "無", "lng": 121.50710997241879, "lat": 25.033529989902647 }, "geometry": { "type": "Point", "coordinates": [ 121.507109972418789, 25.033529989902647 ] } },
{ "type": "Feature", "properties": { "name": "臺北市私立維格幼兒園", "district": "中正區", "type": "私立", "address": "[100]廣州街8巷13號1樓", "telephone": "(02)23816101", "people": "26", "quasi-public": "無", "lng": 121.51329326088828, "lat": 25.044817275656648 }, "geometry": { "type": "Point", "coordinates": [ 121.513293260888275, 25.044817275656648 ] } },
{ "type": "Feature", "properties": { "name": "臺北市私立乖乖幼兒園", "district": "中正區", "type": "私立", "address": "[100]南海路96之1及96之2號1至2樓", "telephone": "(02)23033807", "people": "120", "quasi-public": "110-112 符合", "lng": 121.50837532649273, "lat": 25.028544184735313 }, "geometry": { "type": "Point", "coordinates": [ 121.508375326492725, 25.028544184735313 ] } },
{ "type": "Feature", "properties": { "name": "臺北市私立家緣蒙特梭利幼兒園", "district": "中正區", "type": "私立", "address": "[100]杭州南路1段131巷5號1樓", "telephone": "(02)33222686", "people": "30", "quasi-public": "112-112 符合", "lng": 121.52752711256144, "lat": 25.036001068386899 }, "geometry": { "type": "Point", "coordinates": [ 121.527527112561444, 25.036001068386899 ] } },
{ "type": "Feature", "properties": { "name": "臺北市私立何嘉仁臨沂幼兒園", "district": "中正區", "type": "私立", "address": "[100]臨沂街65巷1號1樓、2樓、3樓", "telephone": "(02)23919678", "people": "226", "quasi-public": "無", "lng": 121.52970003966692, "lat": 25.035759995242472 }, "geometry": { "type": "Point", "coordinates": [ 121.52970003966692, 25.035759995242472 ] } },
{ "type": "Feature", "properties": { "name": "教育部忠孝大樓職場互助教保服務中心(委託社團法人台北市教保人員協會辦理)", "district": "中正區", "type": "私立", "address": "[100]忠孝東路1段172號1樓", "telephone": "(02)23223005", "people": "40", "quasi-public": "無", "lng": 121.52630997892766, "lat": 25.043880005853197 }, "geometry": { "type": "Point", "coordinates": [ 121.526309978927657, 25.043880005853197 ] } },
{ "type": "Feature", "properties": { "name": "教育部徐州大樓職場互助教保服務中心（委託社團法人台北市教保人員協會辦理）", "district": "中正區", "type": "私立", "address": "[100]徐州路48-1號1樓", "telephone": "(02)33435010", "people": "40", "quasi-public": "無", "lng": 121.52508999292047, "lat": 25.040189998708755 }, "geometry": { "type": "Point", "coordinates": [ 121.525089992920471, 25.040189998708755 ] } },
{ "type": "Feature", "properties": { "name": "臺灣銀行桃源大樓職場互助教保服務中心（委託社團法人台灣公共托育協會辦理）", "district": "中正區", "type": "私立", "address": "[100]寶慶路35號2樓", "telephone": "(02)23111655", "people": "60", "quasi-public": "無", "lng": 121.51030004094832, "lat": 25.041480015516967 }, "geometry": { "type": "Point", "coordinates": [ 121.510300040948323, 25.041480015516967 ] } },
{ "type": "Feature", "properties": { "name": "臺北市中華電信仁愛職場互助教保服務中心（委託社團法人台灣幼兒早期教育協會辦理）", "district": "中正區", "type": "私立", "address": "[100]仁愛路一段42號", "telephone": "(02)23510306", "people": "60", "quasi-public": "無", "lng": 121.52380999248652, "lat": 25.038150011113913 }, "geometry": { "type": "Point", "coordinates": [ 121.52380999248652, 25.038150011113913 ] } },
{ "type": "Feature", "properties": { "name": "環境部職場互助教保服務中心（委託社團法人金字塔幼兒教育研究學會辦理）", "district": "中正區", "type": "私立", "address": "[100]中華路一段83號3樓", "telephone": "(02)23832258", "people": "30", "quasi-public": "無", "lng": 121.50769997458332, "lat": 25.038499997481011 }, "geometry": { "type": "Point", "coordinates": [ 121.507699974583318, 25.038499997481011 ] } },
{ "type": "Feature", "properties": { "name": "國立中正紀念堂管理處職場互助教保服務中心（委託社團法人台北市教保人員協會辦理）", "district": "中正區", "type": "私立", "address": "[100]中山南路21號1樓", "telephone": "(02)23914659", "people": "30", "quasi-public": "無", "lng": 121.52163002710864, "lat": 25.034679987018308 }, "geometry": { "type": "Point", "coordinates": [ 121.521630027108642, 25.034679987018308 ] } },
{ "type": "Feature", "properties": { "name": "台電公司輸變電工程處職場互助教保服務中心（委託社團法人台灣公共托育協會辦理）", "district": "中正區", "type": "私立", "address": "[100]牯嶺街73號", "telephone": "(02)2321-2573", "people": "40", "quasi-public": "無", "lng": 121.51757000084854, "lat": 25.028689985642529 }, "geometry": { "type": "Point", "coordinates": [ 121.517570000848536, 25.028689985642529 ] } },
{ "type": "Feature", "properties": { "name": "內政部移民署職場互助教保服務中心（委託社團法人臺北市飛亞特全人福利服務文教發展協會辦理）", "district": "中正區", "type": "私立", "address": "[100]廣州街15號3樓", "telephone": "(02)77566520", "people": "30", "quasi-public": "無", "lng": 121.50177567368874, "lat": 25.036680152853595 }, "geometry": { "type": "Point", "coordinates": [ 121.501775673688741, 25.036680152853595 ] } },
{ "type": "Feature", "properties": { "name": "交通部臺灣鐵路管理局臺北車站職場互助教保服務中心（委託社團法人臺灣兒童教育發展協會辦理）", "district": "中正區", "type": "私立", "address": "[100]北平西路3號3樓", "telephone": "(02)23141477", "people": "60", "quasi-public": "無", "lng": 121.51431201091812, "lat": 25.047498088428039 }, "geometry": { "type": "Point", "coordinates": [ 121.514312010918118, 25.047498088428039 ] } },
{ "type": "Feature", "properties": { "name": "內政部警政署職場互助教保服務中心（委託社團法人中華創造力訓練發展協會辦理）", "district": "中正區", "type": "私立", "address": "[100]忠孝東路一段7號", "telephone": "(02)77553707", "people": "40", "quasi-public": "無", "lng": 121.5225399665174, "lat": 25.04522999517863 }, "geometry": { "type": "Point", "coordinates": [ 121.5225399665174, 25.04522999517863 ] } },
{ "type": "Feature", "properties": { "name": "財團法人佳音教育基金會附設臺北市私立新視野幼兒園", "district": "中正區", "type": "私立", "address": "[100]牯嶺街12號1樓", "telephone": "(02)23568160", "people": "40", "quasi-public": "無", "lng": 121.51911000791898, "lat": 25.024860000715066 }, "geometry": { "type": "Point", "coordinates": [ 121.519110007918982, 25.024860000715066 ] } },
{ "type": "Feature", "properties": { "name": "財政部國有財產署職場互助教保服務中心（委託社團法人臺灣兒童教育發展協會辦理）", "district": "中正區", "type": "私立", "address": "[100]愛國西路2號", "telephone": "(02)23567776", "people": "48", "quasi-public": "無", "lng": 121.51537000272208, "lat": 25.03439001507796 }, "geometry": { "type": "Point", "coordinates": [ 121.515370002722079, 25.03439001507796 ] } },
{ "type": "Feature", "properties": { "name": "臺北市私立夏莉絲國際幼兒園", "district": "中正區", "type": "私立", "address": "[100]杭州南路一段71巷5號1樓", "telephone": "(02)23910698", "people": "37", "quasi-public": "無", "lng": 121.52848450332809, "lat": 25.039139763451637 }, "geometry": { "type": "Point", "coordinates": [ 121.528484503328087, 25.039139763451637 ] } },
{ "type": "Feature", "properties": { "name": "臺北市私立功文雪泥幼兒園", "district": "大同區", "type": "私立", "address": "[103]哈密街59巷79、81號1、2、3樓", "telephone": "(02)25948254", "people": "60", "quasi-public": "無", "lng": 121.51579452029114, "lat": 25.075896127276973 }, "geometry": { "type": "Point", "coordinates": [ 121.515794520291138, 25.075896127276973 ] } },
{ "type": "Feature", "properties": { "name": "臺北市私立博登幼兒園", "district": "大同區", "type": "私立", "address": "[103]承德路三段208巷29號及33號1樓", "telephone": "(02)25871879", "people": "99", "quasi-public": "無", "lng": 121.51713003475083, "lat": 25.070580013594864 }, "geometry": { "type": "Point", "coordinates": [ 121.517130034750835, 25.070580013594864 ] } },
{ "type": "Feature", "properties": { "name": "臺北市私立功文成長幼兒園", "district": "大同區", "type": "私立", "address": "[103]大同區哈密街59巷83號1-2樓", "telephone": "(02)25946008", "people": "42", "quasi-public": "無", "lng": 121.51582002710359, "lat": 25.075959980057533 }, "geometry": { "type": "Point", "coordinates": [ 121.515820027103587, 25.075959980057533 ] } },
{ "type": "Feature", "properties": { "name": "臺北市私立育學幼兒園", "district": "大同區", "type": "私立", "address": "[103]民族西路162巷3號1樓", "telephone": "(02)25986967", "people": "37", "quasi-public": "110-112 符合", "lng": 121.51548231353696, "lat": 25.068551916134535 }, "geometry": { "type": "Point", "coordinates": [ 121.515482313536964, 25.068551916134535 ] } },
{ "type": "Feature", "properties": { "name": "臺北市私立親兒園蒙特梭利幼兒園", "district": "大同區", "type": "私立", "address": "[103]承德路2段47號2樓及47號2樓之1", "telephone": "(02)2559-0888", "people": "55", "quasi-public": "110-112 符合", "lng": 121.51839997690098, "lat": 25.055120012282913 }, "geometry": { "type": "Point", "coordinates": [ 121.51839997690098, 25.055120012282913 ] } },
{ "type": "Feature", "properties": { "name": "臺北市私立格爾登幼兒園", "district": "大同區", "type": "私立", "address": "[103]承德路三段40號1樓", "telephone": "(02)25982833", "people": "35", "quasi-public": "無", "lng": 121.5200077640487, "lat": 25.075311427041434 }, "geometry": { "type": "Point", "coordinates": [ 121.5200077640487, 25.075311427041434 ] } },
{ "type": "Feature", "properties": { "name": "臺北市私立水晶幼兒園", "district": "大同區", "type": "私立", "address": "[103]延平北路二段272巷7號1樓", "telephone": "(02)25535198", "people": "30", "quasi-public": "110-112 符合", "lng": 121.50981138360967, "lat": 25.06215895631707 }, "geometry": { "type": "Point", "coordinates": [ 121.509811383609673, 25.06215895631707 ] } },
{ "type": "Feature", "properties": { "name": "臺北市私立海桔斯幼兒園", "district": "大同區", "type": "私立", "address": "[103]延平北路二段286、286之1、286之2、286之3、286之4號1樓", "telephone": "(02)25532687", "people": "39", "quasi-public": "110-112 符合", "lng": 121.51100782412725, "lat": 25.062676987710226 }, "geometry": { "type": "Point", "coordinates": [ 121.511007824127248, 25.062676987710226 ] } },
{ "type": "Feature", "properties": { "name": "財團法人陳德星堂附設臺北市私立德星幼兒園", "district": "大同區", "type": "私立", "address": "[103]寧夏路27號1樓", "telephone": "(02)25567150#16", "people": "150", "quasi-public": "110-112 符合", "lng": 121.5141995194577, "lat": 25.061657293656729 }, "geometry": { "type": "Point", "coordinates": [ 121.514199519457705, 25.061657293656729 ] } },
{ "type": "Feature", "properties": { "name": "臺北市私立甜甜屋幼兒園", "district": "大同區", "type": "私立", "address": "[103]重慶北路三段296巷4弄4號1樓", "telephone": "(02)25960916", "people": "18", "quasi-public": "無", "lng": 121.51278395093298, "lat": 25.073616631331721 }, "geometry": { "type": "Point", "coordinates": [ 121.512783950932985, 25.073616631331721 ] } },
{ "type": "Feature", "properties": { "name": "財團法人天主教會台北教區附設臺北市私立聖心幼兒園", "district": "大同區", "type": "私立", "address": "[103]民生西路245號1樓至3樓", "telephone": "(02)25578119", "people": "330", "quasi-public": "無", "lng": 121.51485996391386, "lat": 25.057190007091123 }, "geometry": { "type": "Point", "coordinates": [ 121.514859963913864, 25.057190007091123 ] } },
{ "type": "Feature", "properties": { "name": "財團法人王氏太原堂附設臺北市私立太原幼兒園", "district": "大同區", "type": "私立", "address": "[103]迪化街二段243巷2號1樓", "telephone": "(02)25942628", "people": "210", "quasi-public": "112-112 符合", "lng": 121.51270570681797, "lat": 25.071924991133251 }, "geometry": { "type": "Point", "coordinates": [ 121.512705706817968, 25.071924991133251 ] } },
{ "type": "Feature", "properties": { "name": "臺北市私立海格斯幼兒園", "district": "大同區", "type": "私立", "address": "[103]延平北路二段280之1號1樓", "telephone": "(02)25535198", "people": "30", "quasi-public": "111-112 符合", "lng": 121.51113999146554, "lat": 25.062369981344034 }, "geometry": { "type": "Point", "coordinates": [ 121.511139991465541, 25.062369981344034 ] } },
{ "type": "Feature", "properties": { "name": "臺北市私立正光幼兒園", "district": "中山區", "type": "私立", "address": "[104]松江路362巷13、15、17、19號1樓", "telephone": "(02)25223774", "people": "38", "quasi-public": "110-112 符合", "lng": 121.53245266036154, "lat": 25.061992742169121 }, "geometry": { "type": "Point", "coordinates": [ 121.532452660361542, 25.061992742169121 ] } },
{ "type": "Feature", "properties": { "name": "臺北市私立愛迪兒幼兒園", "district": "中山區", "type": "私立", "address": "[104]松江路170巷17號2樓", "telephone": "(02)25222745", "people": "40", "quasi-public": "無", "lng": 121.53132001009368, "lat": 25.056129989706037 }, "geometry": { "type": "Point", "coordinates": [ 121.53132001009368, 25.056129989706037 ] } },
{ "type": "Feature", "properties": { "name": "臺北市私立小伊園幼兒園", "district": "中山區", "type": "私立", "address": "[104]伊通街27之1號1樓", "telephone": "(02)25167861", "people": "28", "quasi-public": "無", "lng": 121.53482004140261, "lat": 25.048590006795052 }, "geometry": { "type": "Point", "coordinates": [ 121.534820041402611, 25.048590006795052 ] } },
{ "type": "Feature", "properties": { "name": "臺北市私立山秀幼兒園", "district": "中山區", "type": "私立", "address": "[104]明水路606巷16號2樓及18號1至2樓", "telephone": "(02)85021798", "people": "99", "quasi-public": "無", "lng": 121.55222003420454, "lat": 25.081870018077026 }, "geometry": { "type": "Point", "coordinates": [ 121.552220034204538, 25.081870018077026 ] } },
{ "type": "Feature", "properties": { "name": "臺北市私立蒙特梭利快樂園幼兒園", "district": "中山區", "type": "私立", "address": "[104]樂群二路188、190號1樓", "telephone": "(02)25337952", "people": "39", "quasi-public": "無", "lng": 121.55864353751574, "lat": 25.079842723675121 }, "geometry": { "type": "Point", "coordinates": [ 121.558643537515735, 25.079842723675121 ] } },
{ "type": "Feature", "properties": { "name": "臺北市私立卡兒堡大直幼兒園", "district": "中山區", "type": "私立", "address": "[104]堤頂大道2段342、344號1、2樓、1樓夾層", "telephone": "(02)85021515", "people": "63", "quasi-public": "無", "lng": 121.56358759733112, "lat": 25.079169753887644 }, "geometry": { "type": "Point", "coordinates": [ 121.563587597331122, 25.079169753887644 ] } },
{ "type": "Feature", "properties": { "name": "臺北市私立幼馨幼兒園", "district": "中山區", "type": "私立", "address": "[104]合江街180巷19號1樓", "telephone": "(02)25080977", "people": "19", "quasi-public": "無", "lng": 121.53828998167921, "lat": 25.061190018924506 }, "geometry": { "type": "Point", "coordinates": [ 121.538289981679213, 25.061190018924506 ] } },
{ "type": "Feature", "properties": { "name": "有限責任臺北市立五常國民中學員生消費合作社附設臺北市私立員工子女幼兒園", "district": "中山區", "type": "私立", "address": "[104]復興北路430巷1號1樓", "telephone": "(02)25048846#9", "people": "40", "quasi-public": "110-112 符合", "lng": 121.54333675747094, "lat": 25.063447312749538 }, "geometry": { "type": "Point", "coordinates": [ 121.543336757470939, 25.063447312749538 ] } },
{ "type": "Feature", "properties": { "name": "臺北市私立喬可幼兒園", "district": "中山區", "type": "私立", "address": "[104]北安路554巷19號", "telephone": "(02)25329555", "people": "40", "quasi-public": "無", "lng": 121.5490100167454, "lat": 25.080170000474979 }, "geometry": { "type": "Point", "coordinates": [ 121.549010016745399, 25.080170000474979 ] } },
{ "type": "Feature", "properties": { "name": "臺北市私立嘉霖幼兒園", "district": "中山區", "type": "私立", "address": "[104]民權東路2段107號2樓、3樓、3樓之1、2、3", "telephone": "(02)25927525", "people": "220", "quasi-public": "無", "lng": 121.53279002827259, "lat": 25.062690002407265 }, "geometry": { "type": "Point", "coordinates": [ 121.532790028272586, 25.062690002407265 ] } },
{ "type": "Feature", "properties": { "name": "臺北市私立艾達幼兒園", "district": "中山區", "type": "私立", "address": "[104]堤頂大道二段282、284、286號1樓、1樓夾層", "telephone": "(02)85011373", "people": "69", "quasi-public": "112-112 符合", "lng": 121.56500207030851, "lat": 25.078295395383808 }, "geometry": { "type": "Point", "coordinates": [ 121.565002070308509, 25.078295395383808 ] } },
{ "type": "Feature", "properties": { "name": "臺北市私立松江蒙特梭利幼兒園", "district": "中山區", "type": "私立", "address": "[104]松江路124巷21、23、25號", "telephone": "(02)25639885", "people": "98", "quasi-public": "無", "lng": 121.53123335841462, "lat": 25.052649273254932 }, "geometry": { "type": "Point", "coordinates": [ 121.531233358414624, 25.052649273254932 ] } },
{ "type": "Feature", "properties": { "name": "臺北市私立荳荳園幼兒園", "district": "中山區", "type": "私立", "address": "[104]龍江路31號2樓", "telephone": "(02)27771300", "people": "40", "quasi-public": "110-112 符合", "lng": 121.54084998254706, "lat": 25.064629993897228 }, "geometry": { "type": "Point", "coordinates": [ 121.540849982547059, 25.064629993897228 ] } },
{ "type": "Feature", "properties": { "name": "臺北市私立國際蒙特梭利幼兒園", "district": "中山區", "type": "私立", "address": "[104]樂群二路128號1樓", "telephone": "(02)85021622", "people": "161", "quasi-public": "無", "lng": 121.55597998833096, "lat": 25.079852698139895 }, "geometry": { "type": "Point", "coordinates": [ 121.555979988330961, 25.079852698139895 ] } },
{ "type": "Feature", "properties": { "name": "臺北市私立傑聲幼兒園", "district": "中山區", "type": "私立", "address": "[104]明水路397巷2弄10、12號1、2樓", "telephone": "(02)25325580", "people": "98", "quasi-public": "110-112 符合", "lng": 121.54707951654431, "lat": 25.078006918004188 }, "geometry": { "type": "Point", "coordinates": [ 121.547079516544315, 25.078006918004188 ] } },
{ "type": "Feature", "properties": { "name": "臺北市私立河岸小百合蒙特梭利幼兒園", "district": "中山區", "type": "私立", "address": "[104]明水路397巷19弄18號1樓、18之2號1樓、20號1樓、18號2樓之1及18號2樓之2", "telephone": "(02)25322766", "people": "68", "quasi-public": "無", "lng": 121.54904002395881, "lat": 25.078549988138747 }, "geometry": { "type": "Point", "coordinates": [ 121.54904002395881, 25.078549988138747 ] } },
{ "type": "Feature", "properties": { "name": "臺北市私立科見幼兒園", "district": "中山區", "type": "私立", "address": "[104]松江路90巷9號2樓", "telephone": "(02)25641420", "people": "75", "quasi-public": "無", "lng": 121.53011266256192, "lat": 25.050472194015338 }, "geometry": { "type": "Point", "coordinates": [ 121.530112662561919, 25.050472194015338 ] } },
{ "type": "Feature", "properties": { "name": "臺北市私立立興幼兒園", "district": "中山區", "type": "私立", "address": "[104]龍江路342巷37號1樓及356巷48號1樓", "telephone": "(02)25034564", "people": "240", "quasi-public": "110-112 符合", "lng": 121.53903001991057, "lat": 25.065640013229867 }, "geometry": { "type": "Point", "coordinates": [ 121.53903001991057, 25.065640013229867 ] } },
{ "type": "Feature", "properties": { "name": "臺北市私立五常幼兒園", "district": "中山區", "type": "私立", "address": "[104]龍江路377巷24號1樓", "telephone": "(02)25025750", "people": "60", "quasi-public": "112-112 符合", "lng": 121.54238998961745, "lat": 25.064549988631413 }, "geometry": { "type": "Point", "coordinates": [ 121.542389989617448, 25.064549988631413 ] } },
{ "type": "Feature", "properties": { "name": "臺北市私立小甜甜幼兒園", "district": "中山區", "type": "私立", "address": "[104]五常街51號1樓", "telephone": "(02)25052178", "people": "90", "quasi-public": "無", "lng": 121.53940997158151, "lat": 25.064410010848391 }, "geometry": { "type": "Point", "coordinates": [ 121.539409971581506, 25.064410010848391 ] } },
{ "type": "Feature", "properties": { "name": "實踐大學附設臺北市私立幼兒園", "district": "中山區", "type": "私立", "address": "[104]大直街70號1樓", "telephone": "(02)25336078", "people": "150", "quasi-public": "無", "lng": 121.54622999091924, "lat": 25.083580010143848 }, "geometry": { "type": "Point", "coordinates": [ 121.546229990919244, 25.083580010143848 ] } },
{ "type": "Feature", "properties": { "name": "臺北市私立新生幼兒園", "district": "中山區", "type": "私立", "address": "[104]新生北路2段125號1、2樓", "telephone": "(02)25414534", "people": "390", "quasi-public": "無", "lng": 121.52794998210294, "lat": 25.059689993532231 }, "geometry": { "type": "Point", "coordinates": [ 121.527949982102939, 25.059689993532231 ] } },
{ "type": "Feature", "properties": { "name": "臺北市私立大愛幼兒園", "district": "中山區", "type": "私立", "address": "[104]松江路221巷15號1樓", "telephone": "(02)25023200", "people": "31", "quasi-public": "無", "lng": 121.53507996422007, "lat": 25.058400018633535 }, "geometry": { "type": "Point", "coordinates": [ 121.535079964220074, 25.058400018633535 ] } },
{ "type": "Feature", "properties": { "name": "臺北市私立新自立全人幼兒園", "district": "中山區", "type": "私立", "address": "[104]德惠街150號2樓及152號1、2樓", "telephone": "(02)25964546", "people": "75", "quasi-public": "無", "lng": 121.53093000013888, "lat": 25.066460014817523 }, "geometry": { "type": "Point", "coordinates": [ 121.530930000138881, 25.066460014817523 ] } },
{ "type": "Feature", "properties": { "name": "臺北市私立友丞幼兒園", "district": "中山區", "type": "私立", "address": "[104]錦州街452號1、2樓", "telephone": "(02)25093438", "people": "40", "quasi-public": "無", "lng": 121.54350000505497, "lat": 25.060090019861278 }, "geometry": { "type": "Point", "coordinates": [ 121.543500005054966, 25.060090019861278 ] } },
{ "type": "Feature", "properties": { "name": "臺北市私立韋斯登幼兒園", "district": "中山區", "type": "私立", "address": "[104]合江街73巷33號1樓", "telephone": "(02)25081568", "people": "24", "quasi-public": "無", "lng": 121.54024003145298, "lat": 25.058850001105498 }, "geometry": { "type": "Point", "coordinates": [ 121.540240031452981, 25.058850001105498 ] } },
{ "type": "Feature", "properties": { "name": "臺北市私立龍江幼兒園", "district": "中山區", "type": "私立", "address": "[104]龍江路397巷12號1樓", "telephone": "(02)25097435", "people": "20", "quasi-public": "110-112 符合", "lng": 121.54366926896374, "lat": 25.065589489166289 }, "geometry": { "type": "Point", "coordinates": [ 121.54366926896374, 25.065589489166289 ] } },
{ "type": "Feature", "properties": { "name": "臺北市私立晨星蒙特梭利幼兒園", "district": "中山區", "type": "私立", "address": "[104]龍江路114巷6號1樓", "telephone": "(02)25047216", "people": "32", "quasi-public": "110-112 符合", "lng": 121.5404167591623, "lat": 25.053177302064803 }, "geometry": { "type": "Point", "coordinates": [ 121.540416759162298, 25.053177302064803 ] } },
{ "type": "Feature", "properties": { "name": "臺北市私立喬幼國際幼兒園", "district": "中山區", "type": "私立", "address": "[104]民權東路三段63、65、67號2樓至3樓", "telephone": "(02)25181888", "people": "99", "quasi-public": "無", "lng": 121.54329187645065, "lat": 25.062493068286319 }, "geometry": { "type": "Point", "coordinates": [ 121.543291876450652, 25.062493068286319 ] } },
{ "type": "Feature", "properties": { "name": "臺北市私立道明幼兒園", "district": "中山區", "type": "私立", "address": "[104]吉林路378號1、2樓", "telephone": "(02)25942294#1061", "people": "310", "quasi-public": "無", "lng": 121.53024000186952, "lat": 25.064519981418044 }, "geometry": { "type": "Point", "coordinates": [ 121.530240001869515, 25.064519981418044 ] } },
{ "type": "Feature", "properties": { "name": "臺北市私立大智幼兒園", "district": "中山區", "type": "私立", "address": "[104]明水路397巷7弄24號1樓", "telephone": "(02)25320696", "people": "40", "quasi-public": "110-112 符合", "lng": 121.54918997620661, "lat": 25.077879980708417 }, "geometry": { "type": "Point", "coordinates": [ 121.549189976206605, 25.077879980708417 ] } },
{ "type": "Feature", "properties": { "name": "臺北市私立宜家蒙特梭利幼兒園", "district": "中山區", "type": "私立", "address": "[104]龍江路271巷5號1樓", "telephone": "(02)25023113", "people": "28", "quasi-public": "無", "lng": 121.54136002135527, "lat": 25.059559990213984 }, "geometry": { "type": "Point", "coordinates": [ 121.541360021355274, 25.059559990213984 ] } },
{ "type": "Feature", "properties": { "name": "臺北市私立蒙特梭利花園幼兒園", "district": "中山區", "type": "私立", "address": "[104]明水路397巷7弄2號及2之1號1樓", "telephone": "(02)25329338", "people": "40", "quasi-public": "無", "lng": 121.54790997577265, "lat": 25.077930020670379 }, "geometry": { "type": "Point", "coordinates": [ 121.547909975772654, 25.077930020670379 ] } },
{ "type": "Feature", "properties": { "name": "臺北市私立建國幼兒園", "district": "中山區", "type": "私立", "address": "[104]建國北路二段6巷1號1樓至4樓", "telephone": "(02)25075564", "people": "119", "quasi-public": "無", "lng": 121.53599321890043, "lat": 25.052597316274579 }, "geometry": { "type": "Point", "coordinates": [ 121.53599321890043, 25.052597316274579 ] } },
{ "type": "Feature", "properties": { "name": "臺北市私立笙愛幼兒園", "district": "中山區", "type": "私立", "address": "[104]松江路78巷8號1樓至2樓", "telephone": "(02)25818356", "people": "35", "quasi-public": "無", "lng": 121.53209559078245, "lat": 25.049835113842519 }, "geometry": { "type": "Point", "coordinates": [ 121.532095590782447, 25.049835113842519 ] } },
{ "type": "Feature", "properties": { "name": "臺北市私立喬幼一江幼兒園", "district": "中山區", "type": "私立", "address": "[104]一江街21號1樓及2樓", "telephone": "(02)25628898", "people": "41", "quasi-public": "無", "lng": 121.53161002394353, "lat": 25.052699989198103 }, "geometry": { "type": "Point", "coordinates": [ 121.531610023943529, 25.052699989198103 ] } },
{ "type": "Feature", "properties": { "name": "臺北市私立蘊品幼兒園", "district": "中山區", "type": "私立", "address": "[104]基湖路147號1樓", "telephone": "(02)25322793", "people": "37", "quasi-public": "無", "lng": 121.56381002700135, "lat": 25.078059982079111 }, "geometry": { "type": "Point", "coordinates": [ 121.563810027001352, 25.078059982079111 ] } },
{ "type": "Feature", "properties": { "name": "臺北市臺北捷運職場互助教保服務中心(委託財團法人彭婉如文教基金會辦理)", "district": "中山區", "type": "私立", "address": "[104]中山北路2段48巷7號1樓", "telephone": "(02)25428158", "people": "55", "quasi-public": "無", "lng": 121.52179081853555, "lat": 25.055790558010802 }, "geometry": { "type": "Point", "coordinates": [ 121.52179081853555, 25.055790558010802 ] } },
{ "type": "Feature", "properties": { "name": "臺北市私立大直嘉蒔幼兒園", "district": "中山區", "type": "私立", "address": "[104]樂群二路266巷16號", "telephone": "(02)85027100", "people": "189", "quasi-public": "無", "lng": 121.56194002440287, "lat": 25.077970002348522 }, "geometry": { "type": "Point", "coordinates": [ 121.561940024402872, 25.077970002348522 ] } },
{ "type": "Feature", "properties": { "name": "臺北市奇地職場互助教保服務中心", "district": "中山區", "type": "私立", "address": "[104]敬業一路132號2樓", "telephone": "(02)85011705", "people": "20", "quasi-public": "無", "lng": 121.55262001862405, "lat": 25.083649999035359 }, "geometry": { "type": "Point", "coordinates": [ 121.552620018624054, 25.083649999035359 ] } },
{ "type": "Feature", "properties": { "name": "臺北市私立青林幼兒園", "district": "松山區", "type": "私立", "address": "[105]敦化南路一段80巷20號1樓", "telephone": "(02)27314531", "people": "26", "quasi-public": "110-112 符合", "lng": 121.54789002684311, "lat": 25.046570010039289 }, "geometry": { "type": "Point", "coordinates": [ 121.547890026843106, 25.046570010039289 ] } },
{ "type": "Feature", "properties": { "name": "臺北市私立凱思寶幼兒園", "district": "松山區", "type": "私立", "address": "[105]光復北路100巷8號3樓", "telephone": "(02)25791349", "people": "33", "quasi-public": "無", "lng": 121.55649276179653, "lat": 25.05059775599835 }, "geometry": { "type": "Point", "coordinates": [ 121.556492761796534, 25.05059775599835 ] } },
{ "type": "Feature", "properties": { "name": "臺北市私立德馨幼兒園", "district": "松山區", "type": "私立", "address": "[105]八德路三段12巷20弄18號1樓", "telephone": "(02)25700768", "people": "23", "quasi-public": "無", "lng": 121.54983001833307, "lat": 25.046570010039289 }, "geometry": { "type": "Point", "coordinates": [ 121.549830018333068, 25.046570010039289 ] } },
{ "type": "Feature", "properties": { "name": "臺北市私立三民幼兒園", "district": "松山區", "type": "私立", "address": "[105]民生東路五段69巷2弄37.39.41號1樓", "telephone": "(02)27651882", "people": "180", "quasi-public": "無", "lng": 121.56011997794741, "lat": 25.059490001322459 }, "geometry": { "type": "Point", "coordinates": [ 121.560119977947409, 25.059490001322459 ] } },
{ "type": "Feature", "properties": { "name": "臺北市私立日恩幼兒園", "district": "松山區", "type": "私立", "address": "[105]健康路325巷16號1樓", "telephone": "(02)27421968", "people": "25", "quasi-public": "無", "lng": 121.56732003277506, "lat": 25.055849992230463 }, "geometry": { "type": "Point", "coordinates": [ 121.567320032775058, 25.055849992230463 ] } },
{ "type": "Feature", "properties": { "name": "財團法人福智文教基金會附設臺北市私立妙慧幼兒園", "district": "松山區", "type": "私立", "address": "[105]南京東路4段133巷5弄25號1至2樓", "telephone": "(02)25451307", "people": "40", "quasi-public": "110-112 符合", "lng": 121.55607000997105, "lat": 25.05208999619451 }, "geometry": { "type": "Point", "coordinates": [ 121.556070009971052, 25.05208999619451 ] } },
{ "type": "Feature", "properties": { "name": "財團法人福智文教基金會附設臺北市私立妙行幼兒園", "district": "松山區", "type": "私立", "address": "[105]南京東路4段133巷5弄23號1樓", "telephone": "(02)25451351", "people": "34", "quasi-public": "110-112 符合", "lng": 121.55597998833099, "lat": 25.052079979820221 }, "geometry": { "type": "Point", "coordinates": [ 121.555979988330989, 25.052079979820221 ] } },
{ "type": "Feature", "properties": { "name": "臺北市立敦化國民中學教師會附設臺北市私立員工子女幼兒園", "district": "松山區", "type": "私立", "address": "[105]南京東路3段300號2樓", "telephone": "(02)87717890#317", "people": "32", "quasi-public": "110-112 符合", "lng": 121.54678998587036, "lat": 25.05151998486906 }, "geometry": { "type": "Point", "coordinates": [ 121.546789985870362, 25.05151998486906 ] } },
{ "type": "Feature", "properties": { "name": "臺北市私立卡兒堡幼兒園", "district": "松山區", "type": "私立", "address": "[105]八德路三段12巷57弄39.41號1樓", "telephone": "(02)25784555", "people": "56", "quasi-public": "無", "lng": 121.55223998313409, "lat": 25.045379989335956 }, "geometry": { "type": "Point", "coordinates": [ 121.552239983134086, 25.045379989335956 ] } },
{ "type": "Feature", "properties": { "name": "臺北市私立天喜幼兒園", "district": "松山區", "type": "私立", "address": "[105]民權東路五段102號1、2樓、民權東路五段104巷2號1、2樓", "telephone": "(02)27672567", "people": "70", "quasi-public": "110-112 符合", "lng": 121.56770995891083, "lat": 25.063260013732716 }, "geometry": { "type": "Point", "coordinates": [ 121.567709958910825, 25.063260013732716 ] } },
{ "type": "Feature", "properties": { "name": "臺北市私立嘉勝幼兒園", "district": "松山區", "type": "私立", "address": "[105]三民路9-17、9-18、9-19、9-20號1樓", "telephone": "(02)27648859", "people": "30", "quasi-public": "無", "lng": 121.56372997982601, "lat": 25.053630003264928 }, "geometry": { "type": "Point", "coordinates": [ 121.563729979826007, 25.053630003264928 ] } },
{ "type": "Feature", "properties": { "name": "臺北市私立嘉維幼兒園", "district": "松山區", "type": "私立", "address": "[105]三民路9-21、9-22、9-23、9-24號1樓", "telephone": "(02)27648859", "people": "32", "quasi-public": "無", "lng": 121.56372997982601, "lat": 25.053569988838191 }, "geometry": { "type": "Point", "coordinates": [ 121.563729979826007, 25.053569988838191 ] } },
{ "type": "Feature", "properties": { "name": "臺北市私立喜樂幼兒園", "district": "松山區", "type": "私立", "address": "[105]健康路290之1號1樓", "telephone": "(02)27622872", "people": "40", "quasi-public": "無", "lng": 121.56529001964503, "lat": 25.054070011272131 }, "geometry": { "type": "Point", "coordinates": [ 121.565290019645033, 25.054070011272131 ] } },
{ "type": "Feature", "properties": { "name": "臺北市私立勁寶兒民權幼兒園", "district": "松山區", "type": "私立", "address": "[105]民權東路三段106巷21弄12號1樓", "telephone": "(02)27199719", "people": "36", "quasi-public": "無", "lng": 121.5461178679401, "lat": 25.059518254017082 }, "geometry": { "type": "Point", "coordinates": [ 121.546117867940097, 25.059518254017082 ] } },
{ "type": "Feature", "properties": { "name": "臺北市私立優寶幼兒園", "district": "松山區", "type": "私立", "address": "[105]南京東路四段133巷6弄2號1、2樓", "telephone": "(02)27131091", "people": "120", "quasi-public": "110-112 符合", "lng": 121.5543018058803, "lat": 25.052651120561443 }, "geometry": { "type": "Point", "coordinates": [ 121.5543018058803, 25.052651120561443 ] } },
{ "type": "Feature", "properties": { "name": "臺北市私立郁欣幼兒園", "district": "松山區", "type": "私立", "address": "[105]八德路三段106巷70號", "telephone": "(02)25787470", "people": "60", "quasi-public": "110-112 符合", "lng": 121.55407997851916, "lat": 25.045999998713839 }, "geometry": { "type": "Point", "coordinates": [ 121.554079978519155, 25.045999998713839 ] } },
{ "type": "Feature", "properties": { "name": "臺北市私立維多利亞幼兒園", "district": "松山區", "type": "私立", "address": "[105]民權東路3段160巷19弄17號1樓", "telephone": "(02)27183809", "people": "120", "quasi-public": "無", "lng": 121.54826997851404, "lat": 25.060030005434541 }, "geometry": { "type": "Point", "coordinates": [ 121.548269978514043, 25.060030005434541 ] } },
{ "type": "Feature", "properties": { "name": "臺北市私立民權幼兒園", "district": "松山區", "type": "私立", "address": "[105]富錦街562巷13號1樓", "telephone": "(02)27131092", "people": "83", "quasi-public": "110-112 符合", "lng": 121.56753997391439, "lat": 25.062130007456119 }, "geometry": { "type": "Point", "coordinates": [ 121.567539973914393, 25.062130007456119 ] } },
{ "type": "Feature", "properties": { "name": "財團法人臺北市私立立德幼兒園", "district": "松山區", "type": "私立", "address": "[105]南京東路5段123巷8弄47號1樓", "telephone": "(02)27670043", "people": "270", "quasi-public": "無", "lng": 121.56297996712988, "lat": 25.053539981624823 }, "geometry": { "type": "Point", "coordinates": [ 121.562979967129877, 25.053539981624823 ] } },
{ "type": "Feature", "properties": { "name": "臺北市私立育華幼兒園", "district": "松山區", "type": "私立", "address": "[105]八德路3段12巷51弄44之2號1樓", "telephone": "(02)25706450", "people": "30", "quasi-public": "110-112 符合", "lng": 121.55210000535106, "lat": 25.046069987605364 }, "geometry": { "type": "Point", "coordinates": [ 121.552100005351065, 25.046069987605364 ] } },
{ "type": "Feature", "properties": { "name": "臺北市私立小親親幼兒園", "district": "松山區", "type": "私立", "address": "[105]民生東路4段80巷15弄3號1樓", "telephone": "(02)27131492", "people": "30", "quasi-public": "無", "lng": 121.5532899841449, "lat": 25.056320007451021 }, "geometry": { "type": "Point", "coordinates": [ 121.553289984144897, 25.056320007451021 ] } },
{ "type": "Feature", "properties": { "name": "臺北市私立宜家民權蒙特梭利幼兒園", "district": "松山區", "type": "私立", "address": "[105]民權東路3段140巷4號1樓", "telephone": "(02)25472626", "people": "58", "quasi-public": "無", "lng": 121.54675224679862, "lat": 25.060941819942308 }, "geometry": { "type": "Point", "coordinates": [ 121.546752246798619, 25.060941819942308 ] } },
{ "type": "Feature", "properties": { "name": "臺北市私立松迪幼兒園", "district": "松山區", "type": "私立", "address": "[105]東興路2巷10號1樓", "telephone": "(02)27615555", "people": "21", "quasi-public": "110-112 符合", "lng": 121.56423422525843, "lat": 25.050693559916052 }, "geometry": { "type": "Point", "coordinates": [ 121.564234225258431, 25.050693559916052 ] } },
{ "type": "Feature", "properties": { "name": "臺北市私立資幼幼兒園", "district": "松山區", "type": "私立", "address": "[105]富錦街372號1樓", "telephone": "(02)27674365", "people": "34", "quasi-public": "無", "lng": 121.55872120594546, "lat": 25.060462595457423 }, "geometry": { "type": "Point", "coordinates": [ 121.55872120594546, 25.060462595457423 ] } },
{ "type": "Feature", "properties": { "name": "財團法人臺灣省臺南市天主教鮑思高慈幼會附設臺北市私立思高幼兒園", "district": "松山區", "type": "私立", "address": "[105]民生東路三段125號1樓", "telephone": "(02)27135473", "people": "180", "quasi-public": "無", "lng": 121.54736003910534, "lat": 25.058040015892146 }, "geometry": { "type": "Point", "coordinates": [ 121.547360039105342, 25.058040015892146 ] } },
{ "type": "Feature", "properties": { "name": "育達學校財團法人臺北市私立育達高級中等學校附設臺北市私立點點幼兒園", "district": "松山區", "type": "私立", "address": "[105]南京東路四段120巷31號1樓", "telephone": "(02)25789177", "people": "210", "quasi-public": "無", "lng": 121.55525000838344, "lat": 25.050130013865484 }, "geometry": { "type": "Point", "coordinates": [ 121.555250008383439, 25.050130013865484 ] } },
{ "type": "Feature", "properties": { "name": "臺北市私立馨兒園幼兒園", "district": "松山區", "type": "私立", "address": "[105]八德路三段12巷60號1樓.三段12巷62弄2號1樓", "telephone": "(02)25775928", "people": "40", "quasi-public": "無", "lng": 121.5497625749487, "lat": 25.045742099111035 }, "geometry": { "type": "Point", "coordinates": [ 121.549762574948701, 25.045742099111035 ] } },
{ "type": "Feature", "properties": { "name": "臺北市私立正欣幼兒園", "district": "松山區", "type": "私立", "address": "[105]光復北路165巷5號、7號1樓", "telephone": "(02)27639957", "people": "120", "quasi-public": "110-112 符合", "lng": 121.55568581700528, "lat": 25.057315705036302 }, "geometry": { "type": "Point", "coordinates": [ 121.555685817005283, 25.057315705036302 ] } },
{ "type": "Feature", "properties": { "name": "臺北市私立光華幼兒園", "district": "松山區", "type": "私立", "address": "[105]慶城街16巷3、5號1樓", "telephone": "(02)27154555", "people": "150", "quasi-public": "無", "lng": 121.54636177907479, "lat": 25.053726748374178 }, "geometry": { "type": "Point", "coordinates": [ 121.546361779074786, 25.053726748374178 ] } },
{ "type": "Feature", "properties": { "name": "臺北市私立童欣幼兒園", "district": "松山區", "type": "私立", "address": "[105]富錦街396號、398號1樓", "telephone": "(02)27662965", "people": "60", "quasi-public": "無", "lng": 121.56729661204896, "lat": 25.062754404305558 }, "geometry": { "type": "Point", "coordinates": [ 121.567296612048963, 25.062754404305558 ] } },
{ "type": "Feature", "properties": { "name": "臺北市私立民族幼兒園", "district": "松山區", "type": "私立", "address": "[105]新中街4巷6、8號1樓", "telephone": "(02)27612638", "people": "60", "quasi-public": "110-112 符合", "lng": 121.56109001560185, "lat": 25.057500011780064 }, "geometry": { "type": "Point", "coordinates": [ 121.561090015601849, 25.057500011780064 ] } },
{ "type": "Feature", "properties": { "name": "臺北市私立多多優質幼兒園", "district": "松山區", "type": "私立", "address": "[105]光復南路46巷25.27,29號1樓", "telephone": "(02)25791370", "people": "75", "quasi-public": "110-112 符合", "lng": 121.55613002439782, "lat": 25.046069987605364 }, "geometry": { "type": "Point", "coordinates": [ 121.556130024397817, 25.046069987605364 ] } },
{ "type": "Feature", "properties": { "name": "臺北市私立小慶園幼兒園", "district": "松山區", "type": "私立", "address": "[105]慶城街16巷9-1號1樓", "telephone": "(02)27190521", "people": "30", "quasi-public": "無", "lng": 121.54622999091924, "lat": 25.053660010478296 }, "geometry": { "type": "Point", "coordinates": [ 121.546229990919244, 25.053660010478296 ] } },
{ "type": "Feature", "properties": { "name": "臺北市私立小敦園幼兒園", "district": "松山區", "type": "私立", "address": "[105]敦化北路145巷55號1樓", "telephone": "(02)25459211", "people": "19", "quasi-public": "無", "lng": 121.55153003593512, "lat": 25.053690017691665 }, "geometry": { "type": "Point", "coordinates": [ 121.551530035935116, 25.053690017691665 ] } },
{ "type": "Feature", "properties": { "name": "臺北市私立正欣啓蒙幼兒園", "district": "松山區", "type": "私立", "address": "[105]光復北路165巷3號1樓", "telephone": "(02)27639957", "people": "27", "quasi-public": "110-112 符合", "lng": 121.55692999323685, "lat": 25.057500011780064 }, "geometry": { "type": "Point", "coordinates": [ 121.556929993236849, 25.057500011780064 ] } },
{ "type": "Feature", "properties": { "name": "臺北市私立賀瑞幼兒園", "district": "松山區", "type": "私立", "address": "[105]南京東路四段53巷11弄1號及3號1樓", "telephone": "(02)27127575", "people": "64", "quasi-public": "無", "lng": 121.55105000434025, "lat": 25.053239993310186 }, "geometry": { "type": "Point", "coordinates": [ 121.551050004340254, 25.053239993310186 ] } },
{ "type": "Feature", "properties": { "name": "臺北市私立哈寶寶幼兒園", "district": "松山區", "type": "私立", "address": "[105]民生東路五段69巷2弄13號及15號1樓", "telephone": "(02)37653868", "people": "40", "quasi-public": "無", "lng": 121.55886998472681, "lat": 25.059399979682354 }, "geometry": { "type": "Point", "coordinates": [ 121.558869984726812, 25.059399979682354 ] } },
{ "type": "Feature", "properties": { "name": "臺北市私立格爾幼兒園", "district": "松山區", "type": "私立", "address": "[105]八德路二段402號1至2樓", "telephone": "(02)87738855", "people": "96", "quasi-public": "無", "lng": 121.54667004083592, "lat": 25.048060019057274 }, "geometry": { "type": "Point", "coordinates": [ 121.54667004083592, 25.048060019057274 ] } },
{ "type": "Feature", "properties": { "name": "臺北市私立豐村幼兒園", "district": "松山區", "type": "私立", "address": "[105]八德路四段106巷2弄4號1樓", "telephone": "(02)27619160", "people": "29", "quasi-public": "無", "lng": 121.560800001752, "lat": 25.048100000735417 }, "geometry": { "type": "Point", "coordinates": [ 121.560800001752, 25.048100000735417 ] } },
{ "type": "Feature", "properties": { "name": "臺北市私立聖如幼兒園", "district": "松山區", "type": "私立", "address": "[105]復興北路361巷26號1樓", "telephone": "(02)27180033", "people": "34", "quasi-public": "110-112 符合", "lng": 121.54618003477628, "lat": 25.060320019284418 }, "geometry": { "type": "Point", "coordinates": [ 121.546180034776285, 25.060320019284418 ] } },
{ "type": "Feature", "properties": { "name": "臺北市私立聖儒幼兒園", "district": "松山區", "type": "私立", "address": "[105]復興北路361巷24號1樓", "telephone": "(02)27173888", "people": "33", "quasi-public": "110-112 符合", "lng": 121.54606998038759, "lat": 25.060320019284418 }, "geometry": { "type": "Point", "coordinates": [ 121.546069980387585, 25.060320019284418 ] } },
{ "type": "Feature", "properties": { "name": "臺北市私立寶仁蒙特梭利幼兒園", "district": "松山區", "type": "私立", "address": "[105]南京東路五段23巷6弄9號及11號1樓", "telephone": "(02)27568845", "people": "50", "quasi-public": "無", "lng": 121.55830998977569, "lat": 25.05220000867368 }, "geometry": { "type": "Point", "coordinates": [ 121.558309989775694, 25.05220000867368 ] } },
{ "type": "Feature", "properties": { "name": "臺北市私立純青幼兒園", "district": "松山區", "type": "私立", "address": "[105]光復北路190巷35號1樓", "telephone": "(02)27171217", "people": "95", "quasi-public": "111-112 符合", "lng": 121.5543200362261, "lat": 25.054680004275724 }, "geometry": { "type": "Point", "coordinates": [ 121.554320036226102, 25.054680004275724 ] } },
{ "type": "Feature", "properties": { "name": "臺北市私立寶仁幼兒園", "district": "松山區", "type": "私立", "address": "[105]光復北路230巷1號1樓", "telephone": "(02)27150971", "people": "55", "quasi-public": "無", "lng": 121.55488889990991, "lat": 25.056212713700013 }, "geometry": { "type": "Point", "coordinates": [ 121.554888899909912, 25.056212713700013 ] } },
{ "type": "Feature", "properties": { "name": "臺北市私立健寶兒幼兒園", "district": "松山區", "type": "私立", "address": "[105]敦化北路222巷11之1、13號1樓", "telephone": "(02)27123455", "people": "48", "quasi-public": "無", "lng": 121.54826997851404, "lat": 25.059240011060254 }, "geometry": { "type": "Point", "coordinates": [ 121.548269978514043, 25.059240011060254 ] } },
{ "type": "Feature", "properties": { "name": "臺北市私立耕心幼兒園", "district": "松山區", "type": "私立", "address": "[105]南京東路四段53巷11弄2號1樓至2樓", "telephone": "(02)25463743", "people": "40", "quasi-public": "無", "lng": 121.55039675587845, "lat": 25.05329271009078 }, "geometry": { "type": "Point", "coordinates": [ 121.550396755878452, 25.05329271009078 ] } },
{ "type": "Feature", "properties": { "name": "臺北市私立圓圓幼兒園", "district": "松山區", "type": "私立", "address": "[105]慶城街20號1樓", "telephone": "(02)27121692", "people": "240", "quasi-public": "無", "lng": 121.54557997432795, "lat": 25.053380013002723 }, "geometry": { "type": "Point", "coordinates": [ 121.54557997432795, 25.053380013002723 ] } },
{ "type": "Feature", "properties": { "name": "內政部國土管理署職場互助教保服務中心（委託社團法人中華音樂舞蹈暨表演藝術教育協會辦理）", "district": "松山區", "type": "私立", "address": "[105]八德路二段342號", "telephone": "(02)87721616", "people": "30", "quasi-public": "無", "lng": 121.5444299772123, "lat": 25.047570012997639 }, "geometry": { "type": "Point", "coordinates": [ 121.544429977212303, 25.047570012997639 ] } },
{ "type": "Feature", "properties": { "name": "國防部軍備局健安新城職場互助教保服務中心（委託社團法人新竹市教保人員協會辦理）", "district": "松山區", "type": "私立", "address": "[105]健康路225巷6號1樓", "telephone": "(02)2742-0292", "people": "40", "quasi-public": "無", "lng": 121.56225992836779, "lat": 25.055399927953143 }, "geometry": { "type": "Point", "coordinates": [ 121.562259928367794, 25.055399927953143 ] } },
{ "type": "Feature", "properties": { "name": "三軍總醫院松山分院職場互助教保服務中心（委託社團法人臺北市飛亞特全人福利服務文教發展協會辦理）", "district": "松山區", "type": "私立", "address": "[105]延壽街314巷6號", "telephone": "(02)87875125", "people": "50", "quasi-public": "無", "lng": 121.5618199955494, "lat": 25.05625001855951 }, "geometry": { "type": "Point", "coordinates": [ 121.561819995549399, 25.05625001855951 ] } },
{ "type": "Feature", "properties": { "name": "國防部資通電軍指揮部平安新村職場互助教保服務中心（委託財團法人經國管理暨健康學院辦理）", "district": "松山區", "type": "私立", "address": "[105]延壽街330巷12-1號、12-2號及16弄2號", "telephone": "(02)27566013", "people": "40", "quasi-public": "無", "lng": 121.56011000348258, "lat": 25.055539987541522 }, "geometry": { "type": "Point", "coordinates": [ 121.560110003482578, 25.055539987541522 ] } },
{ "type": "Feature", "properties": { "name": "臺北市私立愛英幼兒園", "district": "大安區", "type": "私立", "address": "[106]金山南路二段159巷3號", "telephone": "(02)23219844", "people": "60", "quasi-public": "無", "lng": 121.52676997777388, "lat": 25.029209998915533 }, "geometry": { "type": "Point", "coordinates": [ 121.526769977773881, 25.029209998915533 ] } },
{ "type": "Feature", "properties": { "name": "財團法人天主教會台北教區附設臺北市私立信光幼兒園", "district": "大安區", "type": "私立", "address": "[106]通化街178號1、2、3樓", "telephone": "(02)27386770", "people": "210", "quasi-public": "無", "lng": 121.55328000968007, "lat": 25.027480016009633 }, "geometry": { "type": "Point", "coordinates": [ 121.553280009680066, 25.027480016009633 ] } },
{ "type": "Feature", "properties": { "name": "財團法人臺灣大學校園建設基金會附設臺北市私立幼兒園", "district": "大安區", "type": "私立", "address": "[106]基隆路四段144巷59弄12號1樓", "telephone": "(02)33664428", "people": "120", "quasi-public": "無", "lng": 121.5383382708536, "lat": 25.014627066041331 }, "geometry": { "type": "Point", "coordinates": [ 121.5383382708536, 25.014627066041331 ] } },
{ "type": "Feature", "properties": { "name": "財團法人台北市基督教浸信會懷恩堂附設臺北市私立懷恩幼兒園", "district": "大安區", "type": "私立", "address": "[106]新生南路3段90號1樓", "telephone": "(02)23636593", "people": "150", "quasi-public": "無", "lng": 121.5331900126921, "lat": 25.017780016650349 }, "geometry": { "type": "Point", "coordinates": [ 121.533190012692103, 25.017780016650349 ] } },
{ "type": "Feature", "properties": { "name": "臺北市私立童年空間幼兒園", "district": "大安區", "type": "私立", "address": "[106]信義路四段265巷20弄18號1樓", "telephone": "(02)27840326#14", "people": "24", "quasi-public": "無", "lng": 121.5542984129102, "lat": 25.034907390452986 }, "geometry": { "type": "Point", "coordinates": [ 121.5542984129102, 25.034907390452986 ] } },
{ "type": "Feature", "properties": { "name": "臺北市私立陽光寶貝幼兒園", "district": "大安區", "type": "私立", "address": "[106]新生南路1段133巷9號1、2樓", "telephone": "(02)27038699", "people": "90", "quasi-public": "無", "lng": 121.53416786685055, "lat": 25.037428236437883 }, "geometry": { "type": "Point", "coordinates": [ 121.534167866850552, 25.037428236437883 ] } },
{ "type": "Feature", "properties": { "name": "財團法人臺北市私立蒙特梭利幼兒園", "district": "大安區", "type": "私立", "address": "[106]新生南路1段103巷27號1樓、2樓", "telephone": "(02)27529503#20", "people": "150", "quasi-public": "無", "lng": 121.53530996364321, "lat": 25.040799991712348 }, "geometry": { "type": "Point", "coordinates": [ 121.535309963643215, 25.040799991712348 ] } },
{ "type": "Feature", "properties": { "name": "臺北市私立格林菲爾幼兒園", "district": "大安區", "type": "私立", "address": "[106]安和路二段181巷2、4、6號1樓及4號2樓之1、2樓之2與189巷5號1樓", "telephone": "(02)87329191", "people": "152", "quasi-public": "無", "lng": 121.54985218436721, "lat": 25.027324186159071 }, "geometry": { "type": "Point", "coordinates": [ 121.549852184367211, 25.027324186159071 ] } },
{ "type": "Feature", "properties": { "name": "臺北市私立童馨幼兒園", "district": "大安區", "type": "私立", "address": "[106]樂業街182號2樓及184號2樓", "telephone": "(02)27320003", "people": "50", "quasi-public": "110-112 符合", "lng": 121.55403999684103, "lat": 25.019089982388124 }, "geometry": { "type": "Point", "coordinates": [ 121.554039996841027, 25.019089982388124 ] } },
{ "type": "Feature", "properties": { "name": "臺北市私立娃娃家蒙特梭利幼兒園", "district": "大安區", "type": "私立", "address": "[106]信義路四段61號1樓", "telephone": "(02)27009515", "people": "58", "quasi-public": "無", "lng": 121.54537000765345, "lat": 25.033770005700077 }, "geometry": { "type": "Point", "coordinates": [ 121.545370007653446, 25.033770005700077 ] } },
{ "type": "Feature", "properties": { "name": "臺北市私立橘子樹幼兒園", "district": "大安區", "type": "私立", "address": "[106]瑞安街208巷2號及4號1樓", "telephone": "(02)27087011", "people": "40", "quasi-public": "110-112 符合", "lng": 121.54044002366271, "lat": 25.028049985425568 }, "geometry": { "type": "Point", "coordinates": [ 121.540440023662711, 25.028049985425568 ] } },
{ "type": "Feature", "properties": { "name": "臺北市私立勁寶兒幼兒園", "district": "大安區", "type": "私立", "address": "[106]復興南路一段92之8號1樓及76號2樓之3", "telephone": "(02)27111077", "people": "51", "quasi-public": "無", "lng": 121.54359002669509, "lat": 25.043459988685072 }, "geometry": { "type": "Point", "coordinates": [ 121.543590026695085, 25.043459988685072 ] } },
{ "type": "Feature", "properties": { "name": "臺北市私立信宜幼兒園", "district": "大安區", "type": "私立", "address": "[106]安和路一段102巷17號1樓", "telephone": "(02)27099157", "people": "35", "quasi-public": "無", "lng": 121.55091002655723, "lat": 25.034360007864592 }, "geometry": { "type": "Point", "coordinates": [ 121.550910026557233, 25.034360007864592 ] } },
{ "type": "Feature", "properties": { "name": "臺北市私立幼苗幼兒園", "district": "大安區", "type": "私立", "address": "[106]安和路一段127巷13號、15、19號1樓", "telephone": "(02)27000178", "people": "66", "quasi-public": "無", "lng": 121.55313883284983, "lat": 25.034693607271862 }, "geometry": { "type": "Point", "coordinates": [ 121.553138832849825, 25.034693607271862 ] } },
{ "type": "Feature", "properties": { "name": "臺北市私立邦尼幼兒園", "district": "大安區", "type": "私立", "address": "[106]和平東路一段248巷18號1樓及雲和街111號1樓", "telephone": "(02)23685253", "people": "28", "quasi-public": "無", "lng": 121.53249003995791, "lat": 25.023380008071371 }, "geometry": { "type": "Point", "coordinates": [ 121.532490039957906, 25.023380008071371 ] } },
{ "type": "Feature", "properties": { "name": "臺北市私立心聲幼兒園", "district": "大安區", "type": "私立", "address": "[106]新生南路三段22巷14號1樓", "telephone": "(02)23634169", "people": "25", "quasi-public": "無", "lng": 121.53355998989827, "lat": 25.02403999912741 }, "geometry": { "type": "Point", "coordinates": [ 121.533559989898265, 25.02403999912741 ] } },
{ "type": "Feature", "properties": { "name": "臺北市私立真心蒙特梭利幼兒園", "district": "大安區", "type": "私立", "address": "[106]安和路1段112巷20號1樓", "telephone": "(02)27050319", "people": "28", "quasi-public": "無", "lng": 121.55068002713409, "lat": 25.03382000375251 }, "geometry": { "type": "Point", "coordinates": [ 121.550680027134092, 25.03382000375251 ] } },
{ "type": "Feature", "properties": { "name": "臺北市私立長青幼兒園", "district": "大安區", "type": "私立", "address": "[106]基隆路二段232號2樓", "telephone": "(02)27327056", "people": "65", "quasi-public": "無", "lng": 121.55107003708883, "lat": 25.023280011966492 }, "geometry": { "type": "Point", "coordinates": [ 121.551070037088834, 25.023280011966492 ] } },
{ "type": "Feature", "properties": { "name": "臺北市私立卡朵蒙特梭利幼兒園", "district": "大安區", "type": "私立", "address": "[106]四維路192巷12號1樓", "telephone": "(02)27084028", "people": "30", "quasi-public": "無", "lng": 121.54720002857374, "lat": 25.027229983837913 }, "geometry": { "type": "Point", "coordinates": [ 121.547200028573741, 25.027229983837913 ] } },
{ "type": "Feature", "properties": { "name": "臺北市私立何嘉仁延吉幼兒園", "district": "大安區", "type": "私立", "address": "[106]延吉街250號2樓", "telephone": "(02)27086092", "people": "346", "quasi-public": "無", "lng": 121.55606003550628, "lat": 25.034859988389002 }, "geometry": { "type": "Point", "coordinates": [ 121.556060035506277, 25.034859988389002 ] } },
{ "type": "Feature", "properties": { "name": "臺北市私立新生寶貝幼兒園", "district": "大安區", "type": "私立", "address": "[106]信義路2段230號2樓", "telephone": "(02)23959817", "people": "220", "quasi-public": "無", "lng": 121.53188997950957, "lat": 25.033429993797753 }, "geometry": { "type": "Point", "coordinates": [ 121.531889979509572, 25.033429993797753 ] } },
{ "type": "Feature", "properties": { "name": "臺北市私立上學趣蒙特梭利幼兒園", "district": "大安區", "type": "私立", "address": "[106]忠孝東路3段251巷9弄 8、10號1樓", "telephone": "(02)87739963", "people": "30", "quasi-public": "無", "lng": 121.54212998298095, "lat": 25.043199982048577 }, "geometry": { "type": "Point", "coordinates": [ 121.542129982980953, 25.043199982048577 ] } },
{ "type": "Feature", "properties": { "name": "臺北市私立仁和幼兒園", "district": "大安區", "type": "私立", "address": "[106]忠孝東路三段251巷9弄8號", "telephone": "(02)27111787", "people": "60", "quasi-public": "無", "lng": 121.54202001241129, "lat": 25.043220014797157 }, "geometry": { "type": "Point", "coordinates": [ 121.542020012411285, 25.043220014797157 ] } },
{ "type": "Feature", "properties": { "name": "財團法人中華基督教衛理公會附設臺北市私立衛理幼兒園", "district": "大安區", "type": "私立", "address": "[106]新生南路一段113號1樓及117號1樓", "telephone": "(02)27713679#777", "people": "90", "quasi-public": "無", "lng": 121.53306000937386, "lat": 25.039690018184345 }, "geometry": { "type": "Point", "coordinates": [ 121.533060009373855, 25.039690018184345 ] } },
{ "type": "Feature", "properties": { "name": "臺北市私立育樂幼兒園", "district": "大安區", "type": "私立", "address": "[106]和平東路三段308巷40號1樓", "telephone": "(02)27355304", "people": "24", "quasi-public": "110-112 符合", "lng": 121.55537003723691, "lat": 25.019609995661128 }, "geometry": { "type": "Point", "coordinates": [ 121.555370037236912, 25.019609995661128 ] } },
{ "type": "Feature", "properties": { "name": "財團法人臺北市私立立人國際國民中小學附設臺北市私立幼兒園", "district": "大安區", "type": "私立", "address": "[106]安和路二段99號", "telephone": "(02)27361388#518", "people": "240", "quasi-public": "無", "lng": 121.5518900386765, "lat": 25.029800001080048 }, "geometry": { "type": "Point", "coordinates": [ 121.551890038676504, 25.029800001080048 ] } },
{ "type": "Feature", "properties": { "name": "臺北市私立佳安幼兒園", "district": "大安區", "type": "私立", "address": "[106]樂業街131、133號1樓", "telephone": "(02)27332971", "people": "60", "quasi-public": "110-112 符合", "lng": 121.55290457006112, "lat": 25.020228509917544 }, "geometry": { "type": "Point", "coordinates": [ 121.552904570061116, 25.020228509917544 ] } },
{ "type": "Feature", "properties": { "name": "臺北市私立信望愛幼兒園", "district": "大安區", "type": "私立", "address": "[106]敦化南路二段172巷3號1樓", "telephone": "(02)27330444", "people": "30", "quasi-public": "無", "lng": 121.54669552509785, "lat": 25.02411510471638 }, "geometry": { "type": "Point", "coordinates": [ 121.546695525097846, 25.02411510471638 ] } },
{ "type": "Feature", "properties": { "name": "臺北市私立四維幼兒園", "district": "大安區", "type": "私立", "address": "[106]和平東路三段1巷25號", "telephone": "(02)27073718", "people": "120", "quasi-public": "無", "lng": 121.5468599747619, "lat": 25.025660011463643 }, "geometry": { "type": "Point", "coordinates": [ 121.546859974761901, 25.025660011463643 ] } },
{ "type": "Feature", "properties": { "name": "臺北市私立寶血幼兒園", "district": "大安區", "type": "私立", "address": "[106]泰順街60巷18弄8號1樓、2樓及13號1樓", "telephone": "(02)23631896", "people": "210", "quasi-public": "無", "lng": 121.53000871014333, "lat": 25.021938903377798 }, "geometry": { "type": "Point", "coordinates": [ 121.530008710143335, 25.021938903377798 ] } },
{ "type": "Feature", "properties": { "name": "財團法人台灣聖公會附設臺北市私立聖約翰幼兒園", "district": "大安區", "type": "私立", "address": "[106]復興南路二段280號", "telephone": "(02)27327334", "people": "90", "quasi-public": "無", "lng": 121.54326003116705, "lat": 25.024319996602983 }, "geometry": { "type": "Point", "coordinates": [ 121.543260031167051, 25.024319996602983 ] } },
{ "type": "Feature", "properties": { "name": "財團法人天主教會台北教區附設臺北市私立曉星幼兒園", "district": "大安區", "type": "私立", "address": "[106]延吉街254號1樓", "telephone": "(02)27033211", "people": "90", "quasi-public": "無", "lng": 121.55639003103431, "lat": 25.034440013130407 }, "geometry": { "type": "Point", "coordinates": [ 121.556390031034312, 25.034440013130407 ] } },
{ "type": "Feature", "properties": { "name": "財團法人臺北市私立金甌女子高級中學附設臺北市私立幼兒園", "district": "大安區", "type": "私立", "address": "[106]杭州南路二段1號1樓", "telephone": "(02)33931683", "people": "150", "quasi-public": "110-112 符合", "lng": 121.5238300252351, "lat": 25.034290018973081 }, "geometry": { "type": "Point", "coordinates": [ 121.5238300252351, 25.034290018973081 ] } },
{ "type": "Feature", "properties": { "name": "臺北市私立惠真幼兒園", "district": "大安區", "type": "私立", "address": "[106]通化街143巷31號1樓至2樓", "telephone": "(02)27383431", "people": "120", "quasi-public": "110-112 符合", "lng": 121.55581997779933, "lat": 25.028470002593693 }, "geometry": { "type": "Point", "coordinates": [ 121.555819977799331, 25.028470002593693 ] } },
{ "type": "Feature", "properties": { "name": "財團法人臺北市私立復興實驗高級中學附設臺北市私立幼兒園", "district": "大安區", "type": "私立", "address": "[106]敦化南路一段262號1樓", "telephone": "(02)27715859#413", "people": "300", "quasi-public": "無", "lng": 121.54843996351048, "lat": 25.039330015442957 }, "geometry": { "type": "Point", "coordinates": [ 121.548439963510475, 25.039330015442957 ] } },
{ "type": "Feature", "properties": { "name": "新民學校財團法人臺北市私立新民國民小學附設臺北市私立幼兒園", "district": "大安區", "type": "私立", "address": "[106]辛亥路一段113號1樓", "telephone": "(02)23630450#600", "people": "90", "quasi-public": "無", "lng": 121.53185997229622, "lat": 25.022380005113021 }, "geometry": { "type": "Point", "coordinates": [ 121.531859972296218, 25.022380005113021 ] } },
{ "type": "Feature", "properties": { "name": "臺北市私立菁英幼兒園", "district": "大安區", "type": "私立", "address": "[106]新生南路一段119巷15號1樓", "telephone": "(02)27718292", "people": "30", "quasi-public": "無", "lng": 121.53450999480418, "lat": 25.039330015442957 }, "geometry": { "type": "Point", "coordinates": [ 121.534509994804182, 25.039330015442957 ] } },
{ "type": "Feature", "properties": { "name": "臺北市私立安和寶貝幼兒園", "district": "大安區", "type": "私立", "address": "[106]安和路一段78巷1、1之1號及1號共用部分", "telephone": "(02)27029668", "people": "38", "quasi-public": "無", "lng": 121.55205837330533, "lat": 25.035048677191483 }, "geometry": { "type": "Point", "coordinates": [ 121.552058373305329, 25.035048677191483 ] } },
{ "type": "Feature", "properties": { "name": "臺北市私立巧而園幼兒園", "district": "大安區", "type": "私立", "address": "[106]樂利路45巷6號第1、2層", "telephone": "(02)27362869", "people": "52", "quasi-public": "無", "lng": 121.55194996928424, "lat": 25.026634072431662 }, "geometry": { "type": "Point", "coordinates": [ 121.551949969284237, 25.026634072431662 ] } },
{ "type": "Feature", "properties": { "name": "臺北市私立小天心幼兒園", "district": "大安區", "type": "私立", "address": "[106]潮州街57號1樓", "telephone": "(02)23568960", "people": "25", "quasi-public": "110-112 符合", "lng": 121.52385325567967, "lat": 25.029316467614862 }, "geometry": { "type": "Point", "coordinates": [ 121.523853255679668, 25.029316467614862 ] } },
{ "type": "Feature", "properties": { "name": "臺北市私立桔子蒙特梭利幼兒園", "district": "大安區", "type": "私立", "address": "[106]仁愛路三段51巷8號1樓", "telephone": "(02)27790069", "people": "26", "quasi-public": "110-112 符合", "lng": 121.53584003520007, "lat": 25.039849986806445 }, "geometry": { "type": "Point", "coordinates": [ 121.535840035200067, 25.039849986806445 ] } },
{ "type": "Feature", "properties": { "name": "臺北市私立人安幼兒園", "district": "大安區", "type": "私立", "address": "[106]四維路154巷19號1樓", "telephone": "(02)27041113", "people": "24", "quasi-public": "無", "lng": 121.54705996697169, "lat": 25.031069985139681 }, "geometry": { "type": "Point", "coordinates": [ 121.547059966971688, 25.031069985139681 ] } },
{ "type": "Feature", "properties": { "name": "臺北市私立蔚思幼兒園", "district": "大安區", "type": "私立", "address": "[106]安和路二段217巷22、24、26號1、2樓", "telephone": "(02)27350269", "people": "40", "quasi-public": "無", "lng": 121.55102994540353, "lat": 25.025924975175084 }, "geometry": { "type": "Point", "coordinates": [ 121.551029945403528, 25.025924975175084 ] } },
{ "type": "Feature", "properties": { "name": "臺北市私立磊心信義幼兒園", "district": "大安區", "type": "私立", "address": "[106]四維路76巷17號1樓", "telephone": "(02)27014947", "people": "28", "quasi-public": "無", "lng": 121.53005158649513, "lat": 25.046557810084767 }, "geometry": { "type": "Point", "coordinates": [ 121.530051586495134, 25.046557810084767 ] } },
{ "type": "Feature", "properties": { "name": "臺北市私立長青蒙特梭利幼兒園", "district": "大安區", "type": "私立", "address": "[106]基隆路二段232號3樓", "telephone": "(02)27327056", "people": "65", "quasi-public": "無", "lng": 121.55107003708883, "lat": 25.023280011966492 }, "geometry": { "type": "Point", "coordinates": [ 121.551070037088834, 25.023280011966492 ] } },
{ "type": "Feature", "properties": { "name": "臺北市私立爾雅幼兒園", "district": "大安區", "type": "私立", "address": "[106]大安路二段160巷20號1樓", "telephone": "(02)27022953", "people": "24", "quasi-public": "無", "lng": 121.54534000044004, "lat": 25.028710018391124 }, "geometry": { "type": "Point", "coordinates": [ 121.545340000440035, 25.028710018391124 ] } },
{ "type": "Feature", "properties": { "name": "臺北市私立及愛菁英幼兒園", "district": "大安區", "type": "私立", "address": "[106]辛亥路一段79號2樓之1", "telephone": "(02)23683686", "people": "32", "quasi-public": "無", "lng": 121.53053999018414, "lat": 25.021280006049793 }, "geometry": { "type": "Point", "coordinates": [ 121.530539990184138, 25.021280006049793 ] } },
{ "type": "Feature", "properties": { "name": "臺北市私立光目華德福幼兒園", "district": "大安區", "type": "私立", "address": "[106]延吉街241巷2弄11號1、2樓", "telephone": "(02)23253638", "people": "90", "quasi-public": "無", "lng": 121.55622210971428, "lat": 25.035278516410234 }, "geometry": { "type": "Point", "coordinates": [ 121.556222109714284, 25.035278516410234 ] } },
{ "type": "Feature", "properties": { "name": "臺北市私立禾心蒙特梭利幼兒園", "district": "大安區", "type": "私立", "address": "[106]安和路一段135巷16號1樓", "telephone": "(02)27014947", "people": "25", "quasi-public": "無", "lng": 121.55354999078139, "lat": 25.034169990119608 }, "geometry": { "type": "Point", "coordinates": [ 121.553549990781391, 25.034169990119608 ] } },
{ "type": "Feature", "properties": { "name": "臺北市私立華菂幼兒園", "district": "大安區", "type": "私立", "address": "[106]安和路二段217巷30、32號1樓", "telephone": "(02)27350267", "people": "90", "quasi-public": "無", "lng": 121.55118073075499, "lat": 25.025967575883442 }, "geometry": { "type": "Point", "coordinates": [ 121.551180730754993, 25.025967575883442 ] } },
{ "type": "Feature", "properties": { "name": "臺北市私立上愛幼兒園", "district": "大安區", "type": "私立", "address": "[106]溫州街52巷14號1樓", "telephone": "(02)23629886", "people": "23", "quasi-public": "無", "lng": 121.53221997503761, "lat": 25.020920003308419 }, "geometry": { "type": "Point", "coordinates": [ 121.532219975037606, 25.020920003308419 ] } },
{ "type": "Feature", "properties": { "name": "臺北市私立格登幼兒園", "district": "大安區", "type": "私立", "address": "[106]仁愛路三段26之1號1樓、26之2號1樓及26號2樓之1", "telephone": "(02)27548168", "people": "64", "quasi-public": "無", "lng": 121.53706002120725, "lat": 25.039779997914934 }, "geometry": { "type": "Point", "coordinates": [ 121.537060021207253, 25.039779997914934 ] } },
{ "type": "Feature", "properties": { "name": "臺北市私立經緯幼兒園", "district": "大安區", "type": "私立", "address": "[106]復興南路二段160巷16號1樓", "telephone": "(02)27045180", "people": "31", "quasi-public": "110-112 符合", "lng": 121.54232000072597, "lat": 25.027790020698589 }, "geometry": { "type": "Point", "coordinates": [ 121.542320000725965, 25.027790020698589 ] } },
{ "type": "Feature", "properties": { "name": "臺北市私立貓熊幼兒園", "district": "大安區", "type": "私立", "address": "[106]建國南路二段79巷33號1樓及69巷26號1樓、2樓、2樓之1及28號2樓", "telephone": "(02)27048016#22", "people": "180", "quasi-public": "無", "lng": 121.53920000490695, "lat": 25.030930007356659 }, "geometry": { "type": "Point", "coordinates": [ 121.539200004906945, 25.030930007356659 ] } },
{ "type": "Feature", "properties": { "name": "有限責任臺北市立金華國民中學員生消費合作社附設臺北市私立員工子女幼兒園", "district": "大安區", "type": "私立", "address": "[106]新生南路二段32號1樓(南新樓1樓)", "telephone": "(02)33931799#591", "people": "40", "quasi-public": "110-112 符合", "lng": 121.53312002380056, "lat": 25.031190013993154 }, "geometry": { "type": "Point", "coordinates": [ 121.533120023800564, 25.031190013993154 ] } },
{ "type": "Feature", "properties": { "name": "臺北市私立家森幼兒園", "district": "大安區", "type": "私立", "address": "[106]羅斯福路二段101巷19號1樓", "telephone": "(02)23643218", "people": "28", "quasi-public": "無", "lng": 121.52560003172869, "lat": 25.024799986288329 }, "geometry": { "type": "Point", "coordinates": [ 121.525600031728686, 25.024799986288329 ] } },
{ "type": "Feature", "properties": { "name": "財團法人中國文化大學附設臺北市私立文化幼兒園", "district": "大安區", "type": "私立", "address": "[106]瑞安街256巷18號及20號1樓", "telephone": "(02)27085583", "people": "56", "quasi-public": "無", "lng": 121.5388099949522, "lat": 25.027229983837913 }, "geometry": { "type": "Point", "coordinates": [ 121.538809994952203, 25.027229983837913 ] } },
{ "type": "Feature", "properties": { "name": "臺北市私立巧可麗國際幼兒園", "district": "大安區", "type": "私立", "address": "[106]泰順街45號2樓", "telephone": "(02)33653322", "people": "114", "quasi-public": "無", "lng": 121.53129997734504, "lat": 25.022670018962899 }, "geometry": { "type": "Point", "coordinates": [ 121.531299977345043, 25.022670018962899 ] } },
{ "type": "Feature", "properties": { "name": "臺北市私立亞瑟王皇家幼兒園", "district": "大安區", "type": "私立", "address": "[106]潮州街108號2樓", "telephone": "(02)23584018", "people": "39", "quasi-public": "無", "lng": 121.52596003447007, "lat": 25.028849996174145 }, "geometry": { "type": "Point", "coordinates": [ 121.525960034470074, 25.028849996174145 ] } },
{ "type": "Feature", "properties": { "name": "臺北市私立敦歆幼兒園", "district": "大安區", "type": "私立", "address": "[106]忠孝東路三段217巷2弄8號1樓", "telephone": "(02)27761626", "people": "31", "quasi-public": "111-112 符合", "lng": 121.54018001702622, "lat": 25.042209995464518 }, "geometry": { "type": "Point", "coordinates": [ 121.540180017026216, 25.042209995464518 ] } },
{ "type": "Feature", "properties": { "name": "臺北市私立大成幼兒園", "district": "大安區", "type": "私立", "address": "[106]雲和街8號1樓", "telephone": "(02)23697443", "people": "28", "quasi-public": "110-112 符合", "lng": 121.5306000046109, "lat": 25.023510011389618 }, "geometry": { "type": "Point", "coordinates": [ 121.530600004610903, 25.023510011389618 ] } },
{ "type": "Feature", "properties": { "name": "臺北市私立丘山幼兒園", "district": "大安區", "type": "私立", "address": "[106]忠孝東路三段10巷8號1樓", "telephone": "(02)27711031", "people": "25", "quasi-public": "無", "lng": 121.53343996104479, "lat": 25.041689982191514 }, "geometry": { "type": "Point", "coordinates": [ 121.533439961044792, 25.041689982191514 ] } },
{ "type": "Feature", "properties": { "name": "臺北市私立蔚景幼兒園", "district": "大安區", "type": "私立", "address": "[106]復興南路1段313巷6號1,2樓", "telephone": "(02)27042496", "people": "48", "quasi-public": "無", "lng": 121.54502496546306, "lat": 25.03433565188713 }, "geometry": { "type": "Point", "coordinates": [ 121.545024965463057, 25.03433565188713 ] } },
{ "type": "Feature", "properties": { "name": "臺北市私立梓園幼兒園", "district": "大安區", "type": "私立", "address": "[106]信義路二段228巷9號1樓", "telephone": "(02)23570414", "people": "28", "quasi-public": "無", "lng": 121.53173492239364, "lat": 25.031773940981566 }, "geometry": { "type": "Point", "coordinates": [ 121.531734922393639, 25.031773940981566 ] } },
{ "type": "Feature", "properties": { "name": "臺北市私立奇幻幼兒園", "district": "大安區", "type": "私立", "address": "[106]忠孝東路三段217巷1弄7號1樓", "telephone": "(02)27401155", "people": "38", "quasi-public": "111-112 符合", "lng": 121.53935004097377, "lat": 25.042209995464518 }, "geometry": { "type": "Point", "coordinates": [ 121.539350040973773, 25.042209995464518 ] } },
{ "type": "Feature", "properties": { "name": "臺北市私立嘟嘟幼兒園", "district": "大安區", "type": "私立", "address": "[106]光復南路96巷2之1號1樓及98之6號1樓", "telephone": "(02)27218791", "people": "40", "quasi-public": "無", "lng": 121.55662549662893, "lat": 25.043913874686147 }, "geometry": { "type": "Point", "coordinates": [ 121.556625496628925, 25.043913874686147 ] } },
{ "type": "Feature", "properties": { "name": "臺北市私立仁愛幼兒園", "district": "大安區", "type": "私立", "address": "[106]信義路三段147巷15弄27號1樓", "telephone": "(02)27093131", "people": "34", "quasi-public": "無", "lng": 121.54328126491876, "lat": 25.035172292425891 }, "geometry": { "type": "Point", "coordinates": [ 121.543281264918761, 25.035172292425891 ] } },
{ "type": "Feature", "properties": { "name": "臺北市私立熱帶魚幼兒園", "district": "大安區", "type": "私立", "address": "[106]忠孝東路四段170巷24號1樓", "telephone": "(02)27526136", "people": "40", "quasi-public": "無", "lng": 121.55065999438551, "lat": 25.039549998491793 }, "geometry": { "type": "Point", "coordinates": [ 121.550659994385512, 25.039549998491793 ] } },
{ "type": "Feature", "properties": { "name": "臺北市私立心藝術幼兒園", "district": "大安區", "type": "私立", "address": "[106]永康街14巷8號1樓", "telephone": "(02)33222123", "people": "33", "quasi-public": "無", "lng": 121.52909000475381, "lat": 25.031210004832232 }, "geometry": { "type": "Point", "coordinates": [ 121.529090004753812, 25.031210004832232 ] } },
{ "type": "Feature", "properties": { "name": "臺北市私立予心屋幼兒園", "district": "大安區", "type": "私立", "address": "[106]光復南路420巷19號1樓", "telephone": "(02)27056166", "people": "40", "quasi-public": "無", "lng": 121.55642003824767, "lat": 25.036389979085129 }, "geometry": { "type": "Point", "coordinates": [ 121.556420038247666, 25.036389979085129 ] } },
{ "type": "Feature", "properties": { "name": "臺北市私立滿兒圓幼兒園", "district": "大安區", "type": "私立", "address": "[106]仁愛路四段300巷20弄15號1樓", "telephone": "(02)27543381", "people": "38", "quasi-public": "無", "lng": 121.55350003463843, "lat": 25.036330006567908 }, "geometry": { "type": "Point", "coordinates": [ 121.553500034638432, 25.036330006567908 ] } },
{ "type": "Feature", "properties": { "name": "臺北市私立蒙特梭利愛兒園幼兒園", "district": "大安區", "type": "私立", "address": "[106]新生南路一段161巷4之9號1樓", "telephone": "(02)27054343", "people": "32", "quasi-public": "無", "lng": 121.53755928886858, "lat": 25.034566701446625 }, "geometry": { "type": "Point", "coordinates": [ 121.537559288868579, 25.034566701446625 ] } },
{ "type": "Feature", "properties": { "name": "臺北市私立伊帝馬幼兒園", "district": "大安區", "type": "私立", "address": "[106]金山南路二段13巷17號1樓", "telephone": "(02)23966726", "people": "30", "quasi-public": "無", "lng": 121.5283199593091, "lat": 25.033390012119611 }, "geometry": { "type": "Point", "coordinates": [ 121.528319959309101, 25.033390012119611 ] } },
{ "type": "Feature", "properties": { "name": "臺北市私立幼軒幼兒園", "district": "大安區", "type": "私立", "address": "[106]延吉街109號2樓", "telephone": "(02)2772-0366", "people": "27", "quasi-public": "110-112 符合", "lng": 121.55417000015927, "lat": 25.04309001147891 }, "geometry": { "type": "Point", "coordinates": [ 121.554170000159274, 25.04309001147891 ] } },
{ "type": "Feature", "properties": { "name": "臺北市私立享銘幼兒園", "district": "大安區", "type": "私立", "address": "[106]信義路三段31巷11號1樓", "telephone": "(02)27546816", "people": "31", "quasi-public": "110-112 符合", "lng": 121.5347600269759, "lat": 25.035419983340162 }, "geometry": { "type": "Point", "coordinates": [ 121.534760026975903, 25.035419983340162 ] } },
{ "type": "Feature", "properties": { "name": "臺北市私立三暉幼兒園", "district": "大安區", "type": "私立", "address": "[106]和平東路一段91號2樓及2樓之1、2樓之2", "telephone": "(02)23225491", "people": "99", "quasi-public": "無", "lng": 121.52570002783358, "lat": 25.027010000789076 }, "geometry": { "type": "Point", "coordinates": [ 121.525700027833579, 25.027010000789076 ] } },
{ "type": "Feature", "properties": { "name": "財團法人中華民國郵政職工福利委員會附設臺北市私立員工子女幼兒園", "district": "大安區", "type": "私立", "address": "[106]愛國東路210巷9號2樓", "telephone": "(02)23931261#3516", "people": "156", "quasi-public": "無", "lng": 121.52394997026954, "lat": 25.03101001262246 }, "geometry": { "type": "Point", "coordinates": [ 121.523949970269541, 25.03101001262246 ] } },
{ "type": "Feature", "properties": { "name": "臺北市私立吉事達康博喜幼兒園", "district": "大安區", "type": "私立", "address": "[106]臥龍街43巷5號1樓及7號1樓", "telephone": "(02)27381616", "people": "40", "quasi-public": "無", "lng": 121.54767227357591, "lat": 25.022531854773923 }, "geometry": { "type": "Point", "coordinates": [ 121.547672273575913, 25.022531854773923 ] } },
{ "type": "Feature", "properties": { "name": "臺北市私立華康幼兒園", "district": "大安區", "type": "私立", "address": "[106]金華街223之5號2樓及223之9號2樓", "telephone": "(02)23914431", "people": "31", "quasi-public": "無", "lng": 121.5292899969636, "lat": 25.029839982758205 }, "geometry": { "type": "Point", "coordinates": [ 121.529289996963598, 25.029839982758205 ] } },
{ "type": "Feature", "properties": { "name": "臺北市私立磊心蒙特梭利幼兒園", "district": "大安區", "type": "私立", "address": "[106]信義路四段99巷30.32號1樓", "telephone": "(02)27014947", "people": "40", "quasi-public": "無", "lng": 121.5469867559723, "lat": 25.034477276080388 }, "geometry": { "type": "Point", "coordinates": [ 121.546986755972299, 25.034477276080388 ] } },
{ "type": "Feature", "properties": { "name": "臺北市私立菁英種子幼兒園", "district": "大安區", "type": "私立", "address": "[106]濟南路3段11號1樓", "telephone": "(02)27315785", "people": "26", "quasi-public": "無", "lng": 121.53737673337925, "lat": 25.040227303568251 }, "geometry": { "type": "Point", "coordinates": [ 121.537376733379247, 25.040227303568251 ] } },
{ "type": "Feature", "properties": { "name": "臺北市私立樹屋幼兒園", "district": "大安區", "type": "私立", "address": "[106]樂利路11巷19號1樓及23號1樓", "telephone": "(02)23782200#28", "people": "60", "quasi-public": "無", "lng": 121.5519900347814, "lat": 25.028550007859508 }, "geometry": { "type": "Point", "coordinates": [ 121.551990034781397, 25.028550007859508 ] } },
{ "type": "Feature", "properties": { "name": "臺北市私立陽光小屋幼兒園", "district": "大安區", "type": "私立", "address": "[106]瑞安街208巷14弄24號1樓", "telephone": "(02)27070728", "people": "30", "quasi-public": "無", "lng": 121.53927971680616, "lat": 25.02843002091555 }, "geometry": { "type": "Point", "coordinates": [ 121.539279716806163, 25.02843002091555 ] } },
{ "type": "Feature", "properties": { "name": "臺北市私立小天心茜茜幼兒園", "district": "大安區", "type": "私立", "address": "[106]泰順街26巷39號1樓", "telephone": "(02)23637770", "people": "30", "quasi-public": "110-112 符合", "lng": 121.52987002466335, "lat": 25.025059992924824 }, "geometry": { "type": "Point", "coordinates": [ 121.529870024663353, 25.025059992924824 ] } },
{ "type": "Feature", "properties": { "name": "臺北市天堂愛職場互助教保服務中心", "district": "大安區", "type": "私立", "address": "[106]信義路四段137號二樓及二樓之1", "telephone": "(02)27019862", "people": "42", "quasi-public": "無", "lng": 121.54934001227343, "lat": 25.033440010172058 }, "geometry": { "type": "Point", "coordinates": [ 121.549340012273433, 25.033440010172058 ] } },
{ "type": "Feature", "properties": { "name": "國家科學及技術委員會職場互助教保服務中心（委託社團法人台灣公共托育協會辦理）", "district": "大安區", "type": "私立", "address": "[106]和平東路2段106號1樓", "telephone": "(02)27377485", "people": "50", "quasi-public": "無", "lng": 121.54196997244935, "lat": 25.024860000715066 }, "geometry": { "type": "Point", "coordinates": [ 121.541969972449351, 25.024860000715066 ] } },
{ "type": "Feature", "properties": { "name": "臺北市中華電信大安職場互助教保服務中心（委託社團法人台灣幼兒早期教育協會辦理）", "district": "大安區", "type": "私立", "address": "[106]信義路四段74巷8弄4號", "telephone": "(02)27030023", "people": "28", "quasi-public": "無", "lng": 121.54665998255211, "lat": 25.031939984779783 }, "geometry": { "type": "Point", "coordinates": [ 121.546659982552114, 25.031939984779783 ] } },
{ "type": "Feature", "properties": { "name": "臺北市私立蒙特梭利森林幼兒園", "district": "大安區", "type": "私立", "address": "[106]和平東路二段175巷37之1號", "telephone": "(02)27040700", "people": "34", "quasi-public": "無", "lng": 121.54192001630639, "lat": 25.026999984414786 }, "geometry": { "type": "Point", "coordinates": [ 121.541920016306392, 25.026999984414786 ] } },
{ "type": "Feature", "properties": { "name": "臺北市私立夏莉絲國際大安森林幼兒園", "district": "大安區", "type": "私立", "address": "[106]建國南路一段258巷18號", "telephone": "(02)27000885", "people": "30", "quasi-public": "無", "lng": 121.5363199829759, "lat": 25.03679000541419 }, "geometry": { "type": "Point", "coordinates": [ 121.536319982975897, 25.03679000541419 ] } },
{ "type": "Feature", "properties": { "name": "臺北市私立何嘉仁中華幼兒園", "district": "萬華區", "type": "私立", "address": "[108]中華路二段666-12、666-13、668、670號1樓", "telephone": "(02)23094679", "people": "92", "quasi-public": "無", "lng": 121.51136999088868, "lat": 25.024189993284736 }, "geometry": { "type": "Point", "coordinates": [ 121.511369990888682, 25.024189993284736 ] } },
{ "type": "Feature", "properties": { "name": "臺北市私立雪拉比幼兒園", "district": "萬華區", "type": "私立", "address": "[108]環河南路二段250巷1號2樓、252號2樓及254號2樓", "telephone": "(02)23065715", "people": "52", "quasi-public": "無", "lng": 121.49172893109643, "lat": 25.033278493581008 }, "geometry": { "type": "Point", "coordinates": [ 121.491728931096432, 25.033278493581008 ] } },
{ "type": "Feature", "properties": { "name": "臺北市私立盈虹幼兒園", "district": "萬華區", "type": "私立", "address": "[108]西園路二段207號2樓及2樓之1", "telephone": "(02)23325452", "people": "33", "quasi-public": "無", "lng": 121.49436000804155, "lat": 25.027229983837913 }, "geometry": { "type": "Point", "coordinates": [ 121.494360008041554, 25.027229983837913 ] } },
{ "type": "Feature", "properties": { "name": "臺北市私立寶興幼兒園", "district": "萬華區", "type": "私立", "address": "[108]寶興街228號1樓", "telephone": "(02)23375171", "people": "54", "quasi-public": "無", "lng": 121.49580999347188, "lat": 25.022050009585016 }, "geometry": { "type": "Point", "coordinates": [ 121.49580999347188, 25.022050009585016 ] } },
{ "type": "Feature", "properties": { "name": "臺北市私立青年幼兒園", "district": "萬華區", "type": "私立", "address": "[108]國興路90-7號1樓", "telephone": "(02)23370181", "people": "26", "quasi-public": "110-112 符合", "lng": 121.50635995972266, "lat": 25.026730003313503 }, "geometry": { "type": "Point", "coordinates": [ 121.506359959722658, 25.026730003313503 ] } },
{ "type": "Feature", "properties": { "name": "臺北市私立幼佳幼兒園", "district": "萬華區", "type": "私立", "address": "[108]雙園街18巷12號、西藏路484號、484-1號、486號1樓", "telephone": "(02)23026545", "people": "90", "quasi-public": "無", "lng": 121.49423563924474, "lat": 25.028935114057056 }, "geometry": { "type": "Point", "coordinates": [ 121.494235639244735, 25.028935114057056 ] } },
{ "type": "Feature", "properties": { "name": "北部台灣基督長老教會艋舺教會附設臺北市私立愛心幼兒園", "district": "萬華區", "type": "私立", "address": "[108]貴陽街二段94號1樓", "telephone": "(02)23314921#11", "people": "90", "quasi-public": "110-112 符合", "lng": 121.50332001107898, "lat": 25.039669985435751 }, "geometry": { "type": "Point", "coordinates": [ 121.503320011078983, 25.039669985435751 ] } },
{ "type": "Feature", "properties": { "name": "財團法人天主教會台北教區附設臺北市私立育仁幼兒園", "district": "萬華區", "type": "私立", "address": "[108]興寧街70號", "telephone": "(02)23040131", "people": "150", "quasi-public": "110-112 符合", "lng": 121.4995599731335, "lat": 25.032229998629646 }, "geometry": { "type": "Point", "coordinates": [ 121.499559973133501, 25.032229998629646 ] } },
{ "type": "Feature", "properties": { "name": "臺北市私立博愛幼兒園", "district": "萬華區", "type": "私立", "address": "[108]武成街28巷9弄2號", "telephone": "(02)23072749", "people": "120", "quasi-public": "110-112 符合", "lng": 121.49524999852071, "lat": 25.019030009870903 }, "geometry": { "type": "Point", "coordinates": [ 121.495249998520706, 25.019030009870903 ] } },
{ "type": "Feature", "properties": { "name": "臺北市私立娃娃果幼兒園", "district": "萬華區", "type": "私立", "address": "[108]艋舺大道184號2樓及186號1、2樓", "telephone": "(02)23069008", "people": "84", "quasi-public": "110-112 符合", "lng": 121.50020998972479, "lat": 25.032709988314991 }, "geometry": { "type": "Point", "coordinates": [ 121.500209989724794, 25.032709988314991 ] } },
{ "type": "Feature", "properties": { "name": "臺北市私立育光幼兒園", "district": "萬華區", "type": "私立", "address": "[108]德昌街185巷68號、70號1樓", "telephone": "(02)23015139", "people": "90", "quasi-public": "110-112 符合", "lng": 121.49304628306693, "lat": 25.022418543690264 }, "geometry": { "type": "Point", "coordinates": [ 121.493046283066931, 25.022418543690264 ] } },
{ "type": "Feature", "properties": { "name": "臺北市私立德明幼兒園", "district": "萬華區", "type": "私立", "address": "[108]萬大路449巷28弄3號1樓", "telephone": "(02)23073007", "people": "90", "quasi-public": "110-112 符合", "lng": 121.49926287214892, "lat": 25.019896964932343 }, "geometry": { "type": "Point", "coordinates": [ 121.499262872148918, 25.019896964932343 ] } },
{ "type": "Feature", "properties": { "name": "臺北市私立光仁國民小學附設幼兒園", "district": "萬華區", "type": "私立", "address": "[108]萬大路423巷28弄2號", "telephone": "(02)23032874#891", "people": "360", "quasi-public": "無", "lng": 121.49981997977005, "lat": 25.020859988881682 }, "geometry": { "type": "Point", "coordinates": [ 121.499819979770052, 25.020859988881682 ] } },
{ "type": "Feature", "properties": { "name": "臺北市私立英才幼兒園", "district": "萬華區", "type": "私立", "address": "[108]萬大路200號", "telephone": "(02)23072584", "people": "90", "quasi-public": "110-112 符合", "lng": 121.50030001136486, "lat": 25.027370003530464 }, "geometry": { "type": "Point", "coordinates": [ 121.500300011364857, 25.027370003530464 ] } },
{ "type": "Feature", "properties": { "name": "臺北市私立大理幼兒園", "district": "萬華區", "type": "私立", "address": "[108]雙園街67巷3弄3、4、5、7號1樓", "telephone": "(02)23044506", "people": "99", "quasi-public": "無", "lng": 121.494310656811, "lat": 25.030274035844375 }, "geometry": { "type": "Point", "coordinates": [ 121.494310656810995, 25.030274035844375 ] } },
{ "type": "Feature", "properties": { "name": "臺北市私立慈愛幼兒園", "district": "萬華區", "type": "私立", "address": "[108]寶興街140巷23號、27號1、2樓", "telephone": "(02)23078147", "people": "60", "quasi-public": "無", "lng": 121.49390990101686, "lat": 25.023987220163018 }, "geometry": { "type": "Point", "coordinates": [ 121.493909901016863, 25.023987220163018 ] } },
{ "type": "Feature", "properties": { "name": "臺北市私立德昌幼兒園", "district": "萬華區", "type": "私立", "address": "[108]德昌街166號2樓", "telephone": "(02)23395958", "people": "25", "quasi-public": "無", "lng": 121.4957700117937, "lat": 25.024029982753106 }, "geometry": { "type": "Point", "coordinates": [ 121.495770011793695, 25.024029982753106 ] } },
{ "type": "Feature", "properties": { "name": "臺北市私立聖保羅幼兒園", "district": "萬華區", "type": "私立", "address": "[108]長沙街2段52號1樓、2樓", "telephone": "(02)23753690", "people": "49", "quasi-public": "110-112 符合", "lng": 121.56355, "lat": 25.03737 }, "geometry": { "type": "Point", "coordinates": [ 121.56355, 25.03737 ] } },
{ "type": "Feature", "properties": { "name": "臺北市私立名人幼兒園", "district": "萬華區", "type": "私立", "address": "[108]西園路2段227之1號2樓", "telephone": "(02)23016998", "people": "29", "quasi-public": "110-112 符合", "lng": 121.49393001640863, "lat": 25.026869981096524 }, "geometry": { "type": "Point", "coordinates": [ 121.493930016408626, 25.026869981096524 ] } },
{ "type": "Feature", "properties": { "name": "臺北市私立歡樂童年幼兒園", "district": "萬華區", "type": "私立", "address": "[108]中華路二段428之4號1樓", "telephone": "(02)23018609", "people": "27", "quasi-public": "110-112 符合", "lng": 121.50620003301009, "lat": 25.027469999635343 }, "geometry": { "type": "Point", "coordinates": [ 121.506200033010089, 25.027469999635343 ] } },
{ "type": "Feature", "properties": { "name": "臺北市私立小樹苗華頓幼兒園", "district": "萬華區", "type": "私立", "address": "[108]青年路30巷1號、30巷1之2號、30巷1之3號1樓", "telephone": "(02)23375275", "people": "40", "quasi-public": "無", "lng": 121.5046264082472, "lat": 25.026294916020362 }, "geometry": { "type": "Point", "coordinates": [ 121.504626408247205, 25.026294916020362 ] } },
{ "type": "Feature", "properties": { "name": "財政部臺北國稅局職場互助教保服務中心（委託社團法人台北市教保人員協會辦理）", "district": "萬華區", "type": "私立", "address": "[108]中華路一段2號", "telephone": "(02)23883225", "people": "60", "quasi-public": "無", "lng": 121.5091900255108, "lat": 25.047839994098922 }, "geometry": { "type": "Point", "coordinates": [ 121.509190025510804, 25.047839994098922 ] } },
{ "type": "Feature", "properties": { "name": "國防部陸軍司令部精勤職場互助教保服務中心（委託財團法人海棠文教基金會辦理）", "district": "萬華區", "type": "私立", "address": "[108]青年路152巷34號", "telephone": "(02)23395284", "people": "50", "quasi-public": "無", "lng": 121.50095002795615, "lat": 25.020369982822032 }, "geometry": { "type": "Point", "coordinates": [ 121.500950027956151, 25.020369982822032 ] } },
{ "type": "Feature", "properties": { "name": "臺北市私立子畝蒙特梭利幼兒園", "district": "信義區", "type": "私立", "address": "[110]忠孝東路5段558號2樓", "telephone": "(02)27592360", "people": "39", "quasi-public": "112-112 符合", "lng": 121.58029999657549, "lat": 25.042109999359639 }, "geometry": { "type": "Point", "coordinates": [ 121.580299996575491, 25.042109999359639 ] } },
{ "type": "Feature", "properties": { "name": "臺北市私立傑生幼兒園", "district": "信義區", "type": "私立", "address": "[110]忠孝東路五段295巷6弄21.23.25號1樓", "telephone": "(02)27480759", "people": "40", "quasi-public": "無", "lng": 121.57354091367381, "lat": 25.041877443456031 }, "geometry": { "type": "Point", "coordinates": [ 121.57354091367381, 25.041877443456031 ] } },
{ "type": "Feature", "properties": { "name": "臺北市私立聖幼幼兒園", "district": "信義區", "type": "私立", "address": "[110]虎林街232巷54號1樓", "telephone": "(02)27599391", "people": "30", "quasi-public": "110-112 符合", "lng": 121.57606998531895, "lat": 25.036000011039903 }, "geometry": { "type": "Point", "coordinates": [ 121.576069985318952, 25.036000011039903 ] } },
{ "type": "Feature", "properties": { "name": "臺北市私立喬伊幼兒園", "district": "信義區", "type": "私立", "address": "[110]忠孝東路五段524巷3弄27號1樓", "telephone": "(02)23460084", "people": "28", "quasi-public": "110-112 符合", "lng": 121.58073996267314, "lat": 25.041409984715941 }, "geometry": { "type": "Point", "coordinates": [ 121.580739962673135, 25.041409984715941 ] } },
{ "type": "Feature", "properties": { "name": "臺北市私立信義蒙特梭利幼兒園", "district": "信義區", "type": "私立", "address": "[110]忠孝東路五段236巷45弄9號1、2樓及9之1號2樓", "telephone": "(02)27251155", "people": "99", "quasi-public": "無", "lng": 121.57353766665371, "lat": 25.03764811473232 }, "geometry": { "type": "Point", "coordinates": [ 121.573537666653706, 25.03764811473232 ] } },
{ "type": "Feature", "properties": { "name": "臺北市私立佑保幼兒園", "district": "信義區", "type": "私立", "address": "[110]忠孝東路五段490號1.2樓", "telephone": "(02)27594855", "people": "30", "quasi-public": "無", "lng": 121.57812003119761, "lat": 25.040769984498979 }, "geometry": { "type": "Point", "coordinates": [ 121.578120031197614, 25.040769984498979 ] } },
{ "type": "Feature", "properties": { "name": "臺北市私立微笑幼兒園", "district": "信義區", "type": "私立", "address": "[110]和平東路3段341巷12號1、2樓", "telephone": "(02)87323560", "people": "35", "quasi-public": "110-112 符合", "lng": 121.55882159600816, "lat": 25.021930687982607 }, "geometry": { "type": "Point", "coordinates": [ 121.558821596008158, 25.021930687982607 ] } },
{ "type": "Feature", "properties": { "name": "臺北市私立清心幼兒園", "district": "信義區", "type": "私立", "address": "[110]福德街137巷4.5號1樓", "telephone": "(02)27261705", "people": "40", "quasi-public": "110-112 符合", "lng": 121.58281004130038, "lat": 25.0371300173165 }, "geometry": { "type": "Point", "coordinates": [ 121.582810041300377, 25.0371300173165 ] } },
{ "type": "Feature", "properties": { "name": "臺北市私立達德幼兒園", "district": "信義區", "type": "私立", "address": "[110]莊敬路423巷2弄4號及6號1樓", "telephone": "(02)27295967", "people": "36", "quasi-public": "無", "lng": 121.56683002671542, "lat": 25.027480016009633 }, "geometry": { "type": "Point", "coordinates": [ 121.566830026715422, 25.027480016009633 ] } },
{ "type": "Feature", "properties": { "name": "財團法人中華文化社會福利事業基金會台北兒童福利中心附設臺北市私立實驗幼兒園", "district": "信義區", "type": "私立", "address": "[110]虎林街120巷270號1、 2樓，忠孝東路五段295巷8號1、2樓、275巷15號1、2、3樓", "telephone": "(02)27679264#501", "people": "930", "quasi-public": "無", "lng": 121.57247679043606, "lat": 25.041547285680331 }, "geometry": { "type": "Point", "coordinates": [ 121.572476790436056, 25.041547285680331 ] } },
{ "type": "Feature", "properties": { "name": "臺北市私立天琪幼兒園", "district": "信義區", "type": "私立", "address": "[110]吳興街600巷83弄16、18號1樓", "telephone": "(02)27233079", "people": "90", "quasi-public": "無", "lng": 121.57175003624138, "lat": 25.019130005975782 }, "geometry": { "type": "Point", "coordinates": [ 121.571750036241383, 25.019130005975782 ] } },
{ "type": "Feature", "properties": { "name": "臺北市私立友愛幼兒園", "district": "信義區", "type": "私立", "address": "[110]忠孝東路5段524巷5弄23號1樓", "telephone": "(02)27285918", "people": "40", "quasi-public": "112-112 符合", "lng": 121.5806500248521, "lat": 25.040920020565821 }, "geometry": { "type": "Point", "coordinates": [ 121.580650024852105, 25.040920020565821 ] } },
{ "type": "Feature", "properties": { "name": "臺北市私立六三幼兒園", "district": "信義區", "type": "私立", "address": "[110]信義路5段150巷351號1樓", "telephone": "(02)23454058", "people": "90", "quasi-public": "110-112 符合", "lng": 121.57014004027945, "lat": 25.026070012257463 }, "geometry": { "type": "Point", "coordinates": [ 121.570140040279455, 25.026070012257463 ] } },
{ "type": "Feature", "properties": { "name": "臺北市私立國泰幼兒園", "district": "信義區", "type": "私立", "address": "[110]永吉路278巷57弄16號1樓", "telephone": "(02)27617760", "people": "60", "quasi-public": "110-112 符合", "lng": 121.57471999599352, "lat": 25.043279987314378 }, "geometry": { "type": "Point", "coordinates": [ 121.574719995993519, 25.043279987314378 ] } },
{ "type": "Feature", "properties": { "name": "臺北市私立君格幼兒園", "district": "信義區", "type": "私立", "address": "[110]松隆路9巷21、23號1樓", "telephone": "(02)27614112", "people": "60", "quasi-public": "無", "lng": 121.56708441544968, "lat": 25.044396474880187 }, "geometry": { "type": "Point", "coordinates": [ 121.567084415449685, 25.044396474880187 ] } },
{ "type": "Feature", "properties": { "name": "臺北市私立寶兒寶幼兒園", "district": "信義區", "type": "私立", "address": "[110]光復南路419巷17號1樓", "telephone": "(02)23458112", "people": "60", "quasi-public": "110-112 符合", "lng": 121.56080675305736, "lat": 25.036517305584745 }, "geometry": { "type": "Point", "coordinates": [ 121.560806753057363, 25.036517305584745 ] } },
{ "type": "Feature", "properties": { "name": "臺北市私立全心幼兒園", "district": "信義區", "type": "私立", "address": "[110]虎林街40巷30號1樓", "telephone": "(02)27660046", "people": "28", "quasi-public": "無", "lng": 121.57501000984337, "lat": 25.047609994675781 }, "geometry": { "type": "Point", "coordinates": [ 121.575010009843368, 25.047609994675781 ] } },
{ "type": "Feature", "properties": { "name": "臺北市私立上群蒙特梭利忠孝幼兒園", "district": "信義區", "type": "私立", "address": "[110]忠孝東路5段207號1、2樓", "telephone": "(02)27693636", "people": "70", "quasi-public": "無", "lng": 121.57008002585269, "lat": 25.041239999719537 }, "geometry": { "type": "Point", "coordinates": [ 121.57008002585269, 25.041239999719537 ] } },
{ "type": "Feature", "properties": { "name": "臺北市私立慧光幼兒園", "district": "信義區", "type": "私立", "address": "[110]虎林街232巷66弄1號1樓及232巷68、72、74、76號1樓", "telephone": "(02)27279422", "people": "140", "quasi-public": "110-112 符合", "lng": 121.57554997204596, "lat": 25.035629991924225 }, "geometry": { "type": "Point", "coordinates": [ 121.575549972045962, 25.035629991924225 ] } },
{ "type": "Feature", "properties": { "name": "臺北市私立逸仙幼兒園", "district": "信義區", "type": "私立", "address": "[110]逸仙路42巷6號1樓", "telephone": "(02)27224144", "people": "38", "quasi-public": "無", "lng": 121.56210003493453, "lat": 25.040140000656308 }, "geometry": { "type": "Point", "coordinates": [ 121.562100034934531, 25.040140000656308 ] } },
{ "type": "Feature", "properties": { "name": "臺北市私立甲子園幼兒園", "district": "信義區", "type": "私立", "address": "[110]信安街161號1樓至2樓", "telephone": "(02)27358636", "people": "38", "quasi-public": "無", "lng": 121.55493996178495, "lat": 25.022490017592204 }, "geometry": { "type": "Point", "coordinates": [ 121.554939961784953, 25.022490017592204 ] } },
{ "type": "Feature", "properties": { "name": "臺北市私立宗周幼兒園", "district": "信義區", "type": "私立", "address": "[110]松山路393巷32號1樓及忠孝東路五段621巷4號1樓", "telephone": "(02)87852293", "people": "40", "quasi-public": "110-112 符合", "lng": 121.57883967086231, "lat": 25.04241015778307 }, "geometry": { "type": "Point", "coordinates": [ 121.578839670862308, 25.04241015778307 ] } },
{ "type": "Feature", "properties": { "name": "財團法人天主教會台北教區附設臺北市私立三德幼兒園", "district": "信義區", "type": "私立", "address": "[110]松仁路228巷15號1樓至2樓", "telephone": "(02)27221062#11", "people": "170", "quasi-public": "無", "lng": 121.5678299877643, "lat": 25.02487999155413 }, "geometry": { "type": "Point", "coordinates": [ 121.567829987764298, 25.02487999155413 ] } },
{ "type": "Feature", "properties": { "name": "財團法人台北市中華基督教青年會附設臺北市私立永吉幼兒園", "district": "信義區", "type": "私立", "address": "[110]永吉路500號", "telephone": "(02)2763-1261", "people": "90", "quasi-public": "無", "lng": 121.57993001936933, "lat": 25.045160006287119 }, "geometry": { "type": "Point", "coordinates": [ 121.579930019369328, 25.045160006287119 ] } },
{ "type": "Feature", "properties": { "name": "臺北市私立上群蒙特梭利信義幼兒園", "district": "信義區", "type": "私立", "address": "[110]忠孝東路5段217號", "telephone": "(02)27693636", "people": "75", "quasi-public": "無", "lng": 121.57026995977867, "lat": 25.04135001219872 }, "geometry": { "type": "Point", "coordinates": [ 121.57026995977867, 25.04135001219872 ] } },
{ "type": "Feature", "properties": { "name": "財政部財政資訊中心職場互助教保服務中心(委託社團法人新竹市教保人員協會辦理)", "district": "信義區", "type": "私立", "address": "[110]忠孝東路4段547號1樓", "telephone": "(02)27493301", "people": "40", "quasi-public": "無", "lng": 121.56214999107743, "lat": 25.041489989981756 }, "geometry": { "type": "Point", "coordinates": [ 121.562149991077433, 25.041489989981756 ] } },
{ "type": "Feature", "properties": { "name": "臺北市私立太和騰幼兒園", "district": "士林區", "type": "私立", "address": "[111]延平北路6段227號1至3樓", "telephone": "(02)28129958", "people": "97", "quasi-public": "無", "lng": 121.50510996650212, "lat": 25.089290014044053 }, "geometry": { "type": "Point", "coordinates": [ 121.505109966502118, 25.089290014044053 ] } },
{ "type": "Feature", "properties": { "name": "臺北市私立慈暉幼兒園", "district": "士林區", "type": "私立", "address": "[111]永平街46巷3弄7,9號1樓及9號2樓", "telephone": "(02)28113589", "people": "40", "quasi-public": "110-112 符合", "lng": 121.50585000473347, "lat": 25.091030013324243 }, "geometry": { "type": "Point", "coordinates": [ 121.505850004733475, 25.091030013324243 ] } },
{ "type": "Feature", "properties": { "name": "臺北市私立好來幼兒園", "district": "士林區", "type": "私立", "address": "[111]中山北路七段225之1號1.2樓", "telephone": "(02)28718696", "people": "120", "quasi-public": "無", "lng": 121.53284995888026, "lat": 25.12755998183394 }, "geometry": { "type": "Point", "coordinates": [ 121.532849958880263, 25.12755998183394 ] } },
{ "type": "Feature", "properties": { "name": "臺北市私立飛達幼兒園", "district": "士林區", "type": "私立", "address": "[111]延平北路六段210號1樓、2樓之1、2樓之2及212號1樓", "telephone": "(02)28113351", "people": "90", "quasi-public": "110-112 符合", "lng": 121.50489999982756, "lat": 25.089459999040443 }, "geometry": { "type": "Point", "coordinates": [ 121.504899999827558, 25.089459999040443 ] } },
{ "type": "Feature", "properties": { "name": "臺北市私立淘兒園幼兒園", "district": "士林區", "type": "私立", "address": "[111]承德路四段57號一樓,53號二樓,55號二樓,.57號二樓", "telephone": "(02)28861858", "people": "64", "quasi-public": "112-112 符合", "lng": 121.5231199942171, "lat": 25.081549997013781 }, "geometry": { "type": "Point", "coordinates": [ 121.523119994217097, 25.081549997013781 ] } },
{ "type": "Feature", "properties": { "name": "臺北市私立華邇街幼兒園", "district": "士林區", "type": "私立", "address": "[111]中山北路六段290巷7弄8號1,2樓", "telephone": "(02)28363379", "people": "70", "quasi-public": "110-112 符合", "lng": 121.52790925518525, "lat": 25.110086726365981 }, "geometry": { "type": "Point", "coordinates": [ 121.52790925518525, 25.110086726365981 ] } },
{ "type": "Feature", "properties": { "name": "財團法人林迺翁文教基金會附設臺北市私立天鵝堡幼兒園", "district": "士林區", "type": "私立", "address": "[111]至善路2段280之1號、280之1號2樓、280之1號3樓", "telephone": "(02)28411618", "people": "210", "quasi-public": "無", "lng": 121.55160999929143, "lat": 25.100849999627499 }, "geometry": { "type": "Point", "coordinates": [ 121.551609999291429, 25.100849999627499 ] } },
{ "type": "Feature", "properties": { "name": "臺北市私立多多種子幼兒園", "district": "士林區", "type": "私立", "address": "[111]延平北路五段245巷2.4號", "telephone": "(02)28122563", "people": "60", "quasi-public": "無", "lng": 121.5094500321473, "lat": 25.084650001993708 }, "geometry": { "type": "Point", "coordinates": [ 121.509450032147299, 25.084650001993708 ] } },
{ "type": "Feature", "properties": { "name": "臺北市私立忠義幼兒園", "district": "士林區", "type": "私立", "address": "[111]士東路54巷11、19、21號", "telephone": "(02)28310788", "people": "150", "quasi-public": "110-112 符合", "lng": 121.52821950119966, "lat": 25.111351243221609 },