{
"type": "FeatureCollection",
"crs": { "type": "name", "properties": { "name": "urn:ogc:def:crs:OGC:1.3:CRS84" } },
"features": [
{ "type": "Feature", "properties": { "name": "臺北市私立南門幼兒園", "district": "中正區", "type": "私立", "address": "[100]重慶南路三段27巷4號1樓", "telephone": "(02)23910571", "people": "35", "quasi-public": "無", "lng": 121.51718356999503, "lat": 25.028972011745662 }, "geometry": { "type": "Point", "coordinates": [ 121.517183569995026, 25.028972011745662 ] } },
{ "type": "Feature", "properties": { "name": "財團法人中華基督教衛理公會附設臺北市私立城中衛理幼兒園", "district": "中正區", "type": "私立", "address": "[100]寧波東街9巷4號、6號1樓", "telephone": "(02)23952273", "people": "90", "quasi-public": "110-112 符合", "lng": 121.5200580598208, "lat": 25.032641866097929 }, "geometry": { "type": "Point", "coordinates": [ 121.520058059820798, 25.032641866097929 ] } },
{ "type": "Feature", "properties": { "name": "財團法人台北市私立強恕高級中學附設臺北市私立幼兒園", "district": "中正區", "type": "私立", "address": "[100]汀州路二段143號1樓", "telephone": "(02)23680818", "people": "150", "quasi-public": "無", "lng": 121.52016998339451, "lat": 25.024860000715066 }, "geometry": { "type": "Point", "coordinates": [ 121.52016998339451, 25.024860000715066 ] } },
{ "type": "Feature", "properties": { "name": "臺北市私立傑瑞富幼兒園", "district": "中正區", "type": "私立", "address": "[100]忠孝東路一段9號2樓", "telephone": "(02)5582-5168#0208", "people": "54", "quasi-public": "無", "lng": 121.52450494295707, "lat": 25.044433361956077 }, "geometry": { "type": "Point", "coordinates": [ 121.524504942957066, 25.044433361956077 ] } },
{ "type": "Feature", "properties": { "name": "臺北市私立聯華幼兒園", "district": "中正區", "type": "私立", "address": "[100]南海路110之1號1樓", "telephone": "(02)23078855", "people": "90", "quasi-public": "無", "lng": 121.50811999175147, "lat": 25.027929998481611 }, "geometry": { "type": "Point", "coordinates": [ 121.508119991751471, 25.027929998481611 ] } },
{ "type": "Feature", "properties": { "name": "臺北市私立中正區清華幼兒園", "district": "中正區", "type": "私立", "address": "[100]貴陽街一段58號", "telephone": "(02)23118221", "people": "180", "quasi-public": "無", "lng": 121.50933997775866, "lat": 25.038860000222385 }, "geometry": { "type": "Point", "coordinates": [ 121.509339977758657, 25.038860000222385 ] } },
{ "type": "Feature", "properties": { "name": "臺北市私立寶貝幼兒園", "district": "中正區", "type": "私立", "address": "[100]寧波西街181巷44號1、2樓", "telephone": "(02)23053874", "people": "31", "quasi-public": "110-112 符合", "lng": 121.50962999160851, "lat": 25.026389991411193 }, "geometry": { "type": "Point", "coordinates": [ 121.509629991608506, 25.026389991411193 ] } },
{ "type": "Feature", "properties": { "name": "法務部附設臺北市私立員工子女幼兒園", "district": "中正區", "type": "私立", "address": "[100]重慶南路1段136巷2號1樓", "telephone": "(02)23713445", "people": "90", "quasi-public": "112-112 符合", "lng": 121.51241999189949, "lat": 25.036210019623965 }, "geometry": { "type": "Point", "coordinates": [ 121.512419991899492, 25.036210019623965 ] } },
{ "type": "Feature", "properties": { "name": "國立臺灣大學醫學院附設醫院附設臺北市私立員工子女幼兒園", "district": "中正區", "type": "私立", "address": "[100]常德街1號1樓", "telephone": "(02)23123456#67384", "people": "200", "quasi-public": "無", "lng": 121.51668850816951, "lat": 25.041198841092296 }, "geometry": { "type": "Point", "coordinates": [ 121.516688508169509, 25.041198841092296 ] } },
{ "type": "Feature", "properties": { "name": "臺北市私立蒙特梭利童圓幼兒園", "district": "中正區", "type": "私立", "address": "[100]濟南路二段54-1號1至2樓", "telephone": "(02)23957517", "people": "60", "quasi-public": "無", "lng": 121.53148002062528, "lat": 25.040200015083045 }, "geometry": { "type": "Point", "coordinates": [ 121.531480020625281, 25.040200015083045 ] } },
{ "type": "Feature", "properties": { "name": "臺北市私立巨勝幼兒園", "district": "中正區", "type": "私立", "address": "[100]金山南路一段67巷8號1、2樓及8之1號1樓", "telephone": "(02)23936965", "people": "68", "quasi-public": "無", "lng": 121.52917792249198, "lat": 25.03774588054219 }, "geometry": { "type": "Point", "coordinates": [ 121.529177922491982, 25.03774588054219 ] } },
{ "type": "Feature", "properties": { "name": "臺灣高等法院附設臺北市私立員工子女幼兒園", "district": "中正區", "type": "私立", "address": "[100]重慶南路一段136巷4號1樓", "telephone": "(02)23319976", "people": "60", "quasi-public": "110-112 符合", "lng": 121.51189000416167, "lat": 25.036260017676398 }, "geometry": { "type": "Point", "coordinates": [ 121.511890004161671, 25.036260017676398 ] } },
{ "type": "Feature", "properties": { "name": "財團法人信誼基金會附設臺北市私立實驗幼兒園", "district": "中正區", "type": "私立", "address": "[100]重慶南路二段75號2樓", "telephone": "(02)23965305#1023", "people": "64", "quasi-public": "無", "lng": 121.51537997718685, "lat": 25.029960011611678 }, "geometry": { "type": "Point", "coordinates": [ 121.515379977186853, 25.029960011611678 ] } },
{ "type": "Feature", "properties": { "name": "臺北市私立涵鈺新天地幼兒園", "district": "中正區", "type": "私立", "address": "[100]林森南路12號3樓之1", "telephone": "(02)23576386", "people": "30", "quasi-public": "110-112 符合", "lng": 121.51903529199316, "lat": 25.033539096422295 }, "geometry": { "type": "Point", "coordinates": [ 121.519035291993163, 25.033539096422295 ] } },
{ "type": "Feature", "properties": { "name": "臺北市私立智寶園幼兒園", "district": "中正區", "type": "私立", "address": "[100]羅斯福路2段50號2樓之1及2樓之2", "telephone": "(02)23560362", "people": "39", "quasi-public": "112-112 符合", "lng": 121.52158996161148, "lat": 25.02784999321581 }, "geometry": { "type": "Point", "coordinates": [ 121.521589961611483, 25.02784999321581 ] } },
{ "type": "Feature", "properties": { "name": "臺北市私立百家姓幼兒園", "district": "中正區", "type": "私立", "address": "[100]延平南路248巷3號1樓及中華路二段75巷22號1樓", "telephone": "(02)23816725", "people": "40", "quasi-public": "無", "lng": 121.50710997241879, "lat": 25.033529989902647 }, "geometry": { "type": "Point", "coordinates": [ 121.507109972418789, 25.033529989902647 ] } },
{ "type": "Feature", "properties": { "name": "臺北市私立維格幼兒園", "district": "中正區", "type": "私立", "address": "[100]廣州街8巷13號1樓", "telephone": "(02)23816101", "people": "26", "quasi-public": "無", "lng": 121.51329326088828, "lat": 25.044817275656648 }, "geometry": { "type": "Point", "coordinates": [ 121.513293260888275, 25.044817275656648 ] } },
{ "type": "Feature", "properties": { "name": "臺北市私立乖乖幼兒園", "district": "中正區", "type": "私立", "address": "[100]南海路96之1及96之2號1至2樓", "telephone": "(02)23033807", "people": "120", "quasi-public": "110-112 符合", "lng": 121.50837532649273, "lat": 25.028544184735313 }, "geometry": { "type": "Point", "coordinates": [ 121.508375326492725, 25.028544184735313 ] } },
{ "type": "Feature", "properties": { "name": "臺北市私立家緣蒙特梭利幼兒園", "district": "中正區", "type": "私立", "address": "[100]杭州南路1段131巷5號1樓", "telephone": "(02)33222686", "people": "30", "quasi-public": "112-112 符合", "lng": 121.52752711256144, "lat": 25.036001068386899 }, "geometry": { "type": "Point", "coordinates": [ 121.527527112561444, 25.036001068386899 ] } },
{ "type": "Feature", "properties": { "name": "臺北市私立何嘉仁臨沂幼兒園", "district": "中正區", "type": "私立", "address": "[100]臨沂街65巷1號1樓、2樓、3樓", "telephone": "(02)23919678", "people": "226", "quasi-public": "無", "lng": 121.52970003966692, "lat": 25.035759995242472 }, "geometry": { "type": "Point", "coordinates": [ 121.52970003966692, 25.035759995242472 ] } },
{ "type": "Feature", "properties": { "name": "教育部忠孝大樓職場互助教保服務中心(委託社團法人台北市教保人員協會辦理)", "district": "中正區", "type": "私立", "address": "[100]忠孝東路1段172號1樓", "telephone": "(02)23223005", "people": "40", "quasi-public": "無", "lng": 121.52630997892766, "lat": 25.043880005853197 }, "geometry": { "type": "Point", "coordinates": [ 121.526309978927657, 25.043880005853197 ] } },
{ "type": "Feature", "properties": { "name": "教育部徐州大樓職場互助教保服務中心（委託社團法人台北市教保人員協會辦理）", "district": "中正區", "type": "私立", "address": "[100]徐州路48-1號1樓", "telephone": "(02)33435010", "people": "40", "quasi-public": "無", "lng": 121.52508999292047, "lat": 25.040189998708755 }, "geometry": { "type": "Point", "coordinates": [ 121.525089992920471, 25.040189998708755 ] } },
{ "type": "Feature", "properties": { "name": "臺灣銀行桃源大樓職場互助教保服務中心（委託社團法人台灣公共托育協會辦理）", "district": "中正區", "type": "私立", "address": "[100]寶慶路35號2樓", "telephone": "(02)23111655", "people": "60", "quasi-public": "無", "lng": 121.51030004094832, "lat": 25.041480015516967 }, "geometry": { "type": "Point", "coordinates": [ 121.510300040948323, 25.041480015516967 ] } },
{ "type": "Feature", "properties": { "name": "臺北市中華電信仁愛職場互助教保服務中心（委託社團法人台灣幼兒早期教育協會辦理）", "district": "中正區", "type": "私立", "address": "[100]仁愛路一段42號", "telephone": "(02)23510306", "people": "60", "quasi-public": "無", "lng": 121.52380999248652, "lat": 25.038150011113913 }, "geometry": { "type": "Point", "coordinates": [ 121.52380999248652, 25.038150011113913 ] } },
{ "type": "Feature", "properties": { "name": "環境部職場互助教保服務中心（委託社團法人金字塔幼兒教育研究學會辦理）", "district": "中正區", "type": "私立", "address": "[100]中華路一段83號3樓", "telephone": "(02)23832258", "people": "30", "quasi-public": "無", "lng": 121.50769997458332, "lat": 25.038499997481011 }, "geometry": { "type": "Point", "coordinates": [ 121.507699974583318, 25.038499997481011 ] } },
{ "type": "Feature", "properties": { "name": "國立中正紀念堂管理處職場互助教保服務中心（委託社團法人台北市教保人員協會辦理）", "district": "中正區", "type": "私立", "address": "[100]中山南路21號1樓", "telephone": "(02)23914659", "people": "30", "quasi-public": "無", "lng": 121.52163002710864, "lat": 25.034679987018308 }, "geometry": { "type": "Point", "coordinates": [ 121.521630027108642, 25.034679987018308 ] } },
{ "type": "Feature", "properties": { "name": "台電公司輸變電工程處職場互助教保服務中心（委託社團法人台灣公共托育協會辦理）", "district": "中正區", "type": "私立", "address": "[100]牯嶺街73號", "telephone": "(02)2321-2573", "people": "40", "quasi-public": "無", "lng": 121.51757000084854, "lat": 25.028689985642529 }, "geometry": { "type": "Point", "coordinates": [ 121.517570000848536, 25.028689985642529 ] } },
{ "type": "Feature", "properties": { "name": "內政部移民署職場互助教保服務中心（委託社團法人臺北市飛亞特全人福利服務文教發展協會辦理）", "district": "中正區", "type": "私立", "address": "[100]廣州街15號3樓", "telephone": "(02)77566520", "people": "30", "quasi-public": "無", "lng": 121.50177567368874, "lat": 25.036680152853595 }, "geometry": { "type": "Point", "coordinates": [ 121.501775673688741, 25.036680152853595 ] } },
{ "type": "Feature", "properties": { "name": "交通部臺灣鐵路管理局臺北車站職場互助教保服務中心（委託社團法人臺灣兒童教育發展協會辦理）", "district": "中正區", "type": "私立", "address": "[100]北平西路3號3樓", "telephone": "(02)23141477", "people": "60", "quasi-public": "無", "lng": 121.51431201091812, "lat": 25.047498088428039 }, "geometry": { "type": "Point", "coordinates": [ 121.514312010918118, 25.047498088428039 ] } },
{ "type": "Feature", "properties": { "name": "內政部警政署職場互助教保服務中心（委託社團法人中華創造力訓練發展協會辦理）", "district": "中正區", "type": "私立", "address": "[100]忠孝東路一段7號", "telephone": "(02)77553707", "people": "40", "quasi-public": "無", "lng": 121.5225399665174, "lat": 25.04522999517863 }, "geometry": { "type": "Point", "coordinates": [ 121.5225399665174, 25.04522999517863 ] } },
{ "type": "Feature", "properties": { "name": "財團法人佳音教育基金會附設臺北市私立新視野幼兒園", "district": "中正區", "type": "私立", "address": "[100]牯嶺街12號1樓", "telephone": "(02)23568160", "people": "40", "quasi-public": "無", "lng": 121.51911000791898, "lat": 25.024860000715066 }, "geometry": { "type": "Point", "coordinates": [ 121.519110007918982, 25.024860000715066 ] } },
{ "type": "Feature", "properties": { "name": "財政部國有財產署職場互助教保服務中心（委託社團法人臺灣兒童教育發展協會辦理）", "district": "中正區", "type": "私立", "address": "[100]愛國西路2號", "telephone": "(02)23567776", "people": "48", "quasi-public": "無", "lng": 121.51537000272208, "lat": 25.03439001507796 }, "geometry": { "type": "Point", "coordinates": [ 121.515370002722079, 25.03439001507796 ] } },
{ "type": "Feature", "properties": { "name": "臺北市私立夏莉絲國際幼兒園", "district": "中正區", "type": "私立", "address": "[100]杭州南路一段71巷5號1樓", "telephone": "(02)23910698", "people": "37", "quasi-public": "無", "lng": 121.52848450332809, "lat": 25.039139763451637 }, "geometry": { "type": "Point", "coordinates": [ 121.528484503328087, 25.039139763451637 ] } },
{ "type": "Feature", "properties": { "name": "臺北市私立功文雪泥幼兒園", "district": "大同區", "type": "私立", "address": "[103]哈密街59巷79、81號1、2、3樓", "telephone": "(02)25948254", "people": "60", "quasi-public": "無", "lng": 121.51579452029114, "lat": 25.075896127276973 }, "geometry": { "type": "Point", "coordinates": [ 121.515794520291138, 25.075896127276973 ] } },
{ "type": "Feature", "properties": { "name": "臺北市私立博登幼兒園", "district": "大同區", "type": "私立", "address": "[103]承德路三段208巷29號及33號1樓", "telephone": "(02)25871879", "people": "99", "quasi-public": "無", "lng": 121.51713003475083, "lat": 25.070580013594864 }, "geometry": { "type": "Point", "coordinates": [ 121.517130034750835, 25.070580013594864 ] } },
{ "type": "Feature", "properties": { "name": "臺北市私立功文成長幼兒園", "district": "大同區", "type": "私立", "address": "[103]大同區哈密街59巷83號1-2樓", "telephone": "(02)25946008", "people": "42", "quasi-public": "無", "lng": 121.51582002710359, "lat": 25.075959980057533 }, "geometry": { "type": "Point", "coordinates": [ 121.515820027103587, 25.075959980057533 ] } },
{ "type": "Feature", "properties": { "name": "臺北市私立育學幼兒園", "district": "大同區", "type": "私立", "address": "[103]民族西路162巷3號1樓", "telephone": "(02)25986967", "people": "37", "quasi-public": "110-112 符合", "lng": 121.51548231353696, "lat": 25.068551916134535 }, "geometry": { "type": "Point", "coordinates": [ 121.515482313536964, 25.068551916134535 ] } },
{ "type": "Feature", "properties": { "name": "臺北市私立親兒園蒙特梭利幼兒園", "district": "大同區", "type": "私立", "address": "[103]承德路2段47號2樓及47號2樓之1", "telephone": "(02)2559-0888", "people": "55", "quasi-public": "110-112 符合", "lng": 121.51839997690098, "lat": 25.055120012282913 }, "geometry": { "type": "Point", "coordinates": [ 121.51839997690098, 25.055120012282913 ] } },
{ "type": "Feature", "properties": { "name": "臺北市私立格爾登幼兒園", "district": "大同區", "type": "私立", "address": "[103]承德路三段40號1樓", "telephone": "(02)25982833", "people": "35", "quasi-public": "無", "lng": 121.5200077640487, "lat": 25.075311427041434 }, "geometry": { "type": "Point", "coordinates": [ 121.5200077640487, 25.075311427041434 ] } },
{ "type": "Feature", "properties": { "name": "臺北市私立水晶幼兒園", "district": "大同區", "type": "私立", "address": "[103]延平北路二段272巷7號1樓", "telephone": "(02)25535198", "people": "30", "quasi-public": "110-112 符合", "lng": 121.50981138360967, "lat": 25.06215895631707 }, "geometry": { "type": "Point", "coordinates": [ 121.509811383609673, 25.06215895631707 ] } },
{ "type": "Feature", "properties": { "name": "臺北市私立海桔斯幼兒園", "district": "大同區", "type": "私立", "address": "[103]延平北路二段286、286之1、286之2、286之3、286之4號1樓", "telephone": "(02)25532687", "people": "39", "quasi-public": "110-112 符合", "lng": 121.51100782412725, "lat": 25.062676987710226 }, "geometry": { "type": "Point", "coordinates": [ 121.511007824127248, 25.062676987710226 ] } },
{ "type": "Feature", "properties": { "name": "財團法人陳德星堂附設臺北市私立德星幼兒園", "district": "大同區", "type": "私立", "address": "[103]寧夏路27號1樓", "telephone": "(02)25567150#16", "people": "150", "quasi-public": "110-112 符合", "lng": 121.5141995194577, "lat": 25.061657293656729 }, "geometry": { "type": "Point", "coordinates": [ 121.514199519457705, 25.061657293656729 ] } },
{ "type": "Feature", "properties": { "name": "臺北市私立甜甜屋幼兒園", "district": "大同區", "type": "私立", "address": "[103]重慶北路三段296巷4弄4號1樓", "telephone": "(02)25960916", "people": "18", "quasi-public": "無", "lng": 121.51278395093298, "lat": 25.073616631331721 }, "geometry": { "type": "Point", "coordinates": [ 121.512783950932985, 25.073616631331721 ] } },
{ "type": "Feature", "properties": { "name": "財團法人天主教會台北教區附設臺北市私立聖心幼兒園", "district": "大同區", "type": "私立", "address": "[103]民生西路245號1樓至3樓", "telephone": "(02)25578119", "people": "330", "quasi-public": "無", "lng": 121.51485996391386, "lat": 25.057190007091123 }, "geometry": { "type": "Point", "coordinates": [ 121.514859963913864, 25.057190007091123 ] } },
{ "type": "Feature", "properties": { "name": "財團法人王氏太原堂附設臺北市私立太原幼兒園", "district": "大同區", "type": "私立", "address": "[103]迪化街二段243巷2號1樓", "telephone": "(02)25942628", "people": "210", "quasi-public": "112-112 符合", "lng": 121.51270570681797, "lat": 25.071924991133251 }, "geometry": { "type": "Point", "coordinates": [ 121.512705706817968, 25.071924991133251 ] } },
{ "type": "Feature", "properties": { "name": "臺北市私立海格斯幼兒園", "district": "大同區", "type": "私立", "address": "[103]延平北路二段280之1號1樓", "telephone": "(02)25535198", "people": "30", "quasi-public": "111-112 符合", "lng": 121.51113999146554, "lat": 25.062369981344034 }, "geometry": { "type": "Point", "coordinates": [ 121.511139991465541, 25.062369981344034 ] } },
{ "type": "Feature", "properties": { "name": "臺北市私立正光幼兒園", "district": "中山區", "type": "私立", "address": "[104]松江路362巷13、15、17、19號1樓", "telephone": "(02)25223774", "people": "38", "quasi-public": "110-112 符合", "lng": 121.53245266036154, "lat": 25.061992742169121 }, "geometry": { "type": "Point", "coordinates": [ 121.532452660361542, 25.061992742169121 ] } },
{ "type": "Feature", "properties": { "name": "臺北市私立愛迪兒幼兒園", "district": "中山區", "type": "私立", "address": "[104]松江路170巷17號2樓", "telephone": "(02)25222745", "people": "40", "quasi-public": "無", "lng": 121.53132001009368, "lat": 25.056129989706037 }, "geometry": { "type": "Point", "coordinates": [ 121.53132001009368, 25.056129989706037 ] } },
{ "type": "Feature", "properties": { "name": "臺北市私立小伊園幼兒園", "district": "中山區", "type": "私立", "address": "[104]伊通街27之1號1樓", "telephone": "(02)25167861", "people": "28", "quasi-public": "無", "lng": 121.53482004140261, "lat": 25.048590006795052 }, "geometry": { "type": "Point", "coordinates": [ 121.534820041402611, 25.048590006795052 ] } },
{ "type": "Feature", "properties": { "name": "臺北市私立山秀幼兒園", "district": "中山區", "type": "私立", "address": "[104]明水路606巷16號2樓及18號1至2樓", "telephone": "(02)85021798", "people": "99", "quasi-public": "無", "lng": 121.55222003420454, "lat": 25.081870018077026 }, "geometry": { "type": "Point", "coordinates": [ 121.552220034204538, 25.081870018077026 ] } },
{ "type": "Feature", "properties": { "name": "臺北市私立蒙特梭利快樂園幼兒園", "district": "中山區", "type": "私立", "address": "[104]樂群二路188、190號1樓", "telephone": "(02)25337952", "people": "39", "quasi-public": "無", "lng": 121.55864353751574, "lat": 25.079842723675121 }, "geometry": { "type": "Point", "coordinates": [ 121.558643537515735, 25.079842723675121 ] } },
{ "type": "Feature", "properties": { "name": "臺北市私立卡兒堡大直幼兒園", "district": "中山區", "type": "私立", "address": "[104]堤頂大道2段342、344號1、2樓、1樓夾層", "telephone": "(02)85021515", "people": "63", "quasi-public": "無", "lng": 121.56358759733112, "lat": 25.079169753887644 }, "geometry": { "type": "Point", "coordinates": [ 121.563587597331122, 25.079169753887644 ] } },
{ "type": "Feature", "properties": { "name": "臺北市私立幼馨幼兒園", "district": "中山區", "type": "私立", "address": "[104]合江街180巷19號1樓", "telephone": "(02)25080977", "people": "19", "quasi-public": "無", "lng": 121.53828998167921, "lat": 25.061190018924506 }, "geometry": { "type": "Point", "coordinates": [ 121.538289981679213, 25.061190018924506 ] } },
{ "type": "Feature", "properties": { "name": "有限責任臺北市立五常國民中學員生消費合作社附設臺北市私立員工子女幼兒園", "district": "中山區", "type": "私立", "address": "[104]復興北路430巷1號1樓", "telephone": "(02)25048846#9", "people": "40", "quasi-public": "110-112 符合", "lng": 121.54333675747094, "lat": 25.063447312749538 }, "geometry": { "type": "Point", "coordinates": [ 121.543336757470939, 25.063447312749538 ] } },
{ "type": "Feature", "properties": { "name": "臺北市私立喬可幼兒園", "district": "中山區", "type": "私立", "address": "[104]北安路554巷19號", "telephone": "(02)25329555", "people": "40", "quasi-public": "無", "lng": 121.5490100167454, "lat": 25.080170000474979 }, "geometry": { "type": "Point", "coordinates": [ 121.549010016745399, 25.080170000474979 ] } },
{ "type": "Feature", "properties": { "name": "臺北市私立嘉霖幼兒園", "district": "中山區", "type": "私立", "address": "[104]民權東路2段107號2樓、3樓、3樓之1、2、3", "telephone": "(02)25927525", "people": "220", "quasi-public": "無", "lng": 121.53279002827259, "lat": 25.062690002407265 }, "geometry": { "type": "Point", "coordinates": [ 121.532790028272586, 25.062690002407265 ] } },
{ "type": "Feature", "properties": { "name": "臺北市私立艾達幼兒園", "district": "中山區", "type": "私立", "address": "[104]堤頂大道二段282、284、286號1樓、1樓夾層", "telephone": "(02)85011373", "people": "69", "quasi-public": "112-112 符合", "lng": 121.56500207030851, "lat": 25.078295395383808 }, "geometry": { "type": "Point", "coordinates": [ 121.565002070308509, 25.078295395383808 ] } },
{ "type": "Feature", "properties": { "name": "臺北市私立松江蒙特梭利幼兒園", "district": "中山區", "type": "私立", "address": "[104]松江路124巷21、23、25號", "telephone": "(02)25639885", "people": "98", "quasi-public": "無", "lng": 121.53123335841462, "lat": 25.052649273254932 }, "geometry": { "type": "Point", "coordinates": [ 121.531233358414624, 25.052649273254932 ] } },
{ "type": "Feature", "properties": { "name": "臺北市私立荳荳園幼兒園", "district": "中山區", "type": "私立", "address": "[104]龍江路31號2樓", "telephone": "(02)27771300", "people": "40", "quasi-public": "110-112 符合", "lng": 121.54084998254706, "lat": 25.064629993897228 }, "geometry": { "type": "Point", "coordinates": [ 121.540849982547059, 25.064629993897228 ] } },
{ "type": "Feature", "properties": { "name": "臺北市私立國際蒙特梭利幼兒園", "district": "中山區", "type": "私立", "address": "[104]樂群二路128號1樓", "telephone": "(02)85021622", "people": "161", "quasi-public": "無", "lng": 121.55597998833096, "lat": 25.079852698139895 }, "geometry": { "type": "Point", "coordinates": [ 121.555979988330961, 25.079852698139895 ] } },
{ "type": "Feature", "properties": { "name": "臺北市私立傑聲幼兒園", "district": "中山區", "type": "私立", "address": "[104]明水路397巷2弄10、12號1、2樓", "telephone": "(02)25325580", "people": "98", "quasi-public": "110-112 符合", "lng": 121.54707951654431, "lat": 25.078006918004188 }, "geometry": { "type": "Point", "coordinates": [ 121.547079516544315, 25.078006918004188 ] } },
{ "type": "Feature", "properties": { "name": "臺北市私立河岸小百合蒙特梭利幼兒園", "district": "中山區", "type": "私立", "address": "[104]明水路397巷19弄18號1樓、18之2號1樓、20號1樓、18號2樓之1及18號2樓之2", "telephone": "(02)25322766", "people": "68", "quasi-public": "無", "lng": 121.54904002395881, "lat": 25.078549988138747 }, "geometry": { "type": "Point", "coordinates": [ 121.54904002395881, 25.078549988138747 ] } },
{ "type": "Feature", "properties": { "name": "臺北市私立科見幼兒園", "district": "中山區", "type": "私立", "address": "[104]松江路90巷9號2樓", "telephone": "(02)25641420", "people": "75", "quasi-public": "無", "lng": 121.53011266256192, "lat": 25.050472194015338 }, "geometry": { "type": "Point", "coordinates": [ 121.530112662561919, 25.050472194015338 ] } },
{ "type": "Feature", "properties": { "name": "臺北市私立立興幼兒園", "district": "中山區", "type": "私立", "address": "[104]龍江路342巷37號1樓及356巷48號1樓", "telephone": "(02)25034564", "people": "240", "quasi-public": "110-112 符合", "lng": 121.53903001991057, "lat": 25.065640013229867 }, "geometry": { "type": "Point", "coordinates": [ 121.53903001991057, 25.065640013229867 ] } },
{ "type": "Feature", "properties": { "name": "臺北市私立五常幼兒園", "district": "中山區", "type": "私立", "address": "[104]龍江路377巷24號1樓", "telephone": "(02)25025750", "people": "60", "quasi-public": "112-112 符合", "lng": 121.54238998961745, "lat": 25.064549988631413 }, "geometry": { "type": "Point", "coordinates": [ 121.542389989617448, 25.064549988631413 ] } },
{ "type": "Feature", "properties": { "name": "臺北市私立小甜甜幼兒園", "district": "中山區", "type": "私立", "address": "[104]五常街51號1樓", "telephone": "(02)25052178", "people": "90", "quasi-public": "無", "lng": 121.53940997158151, "lat": 25.064410010848391 }, "geometry": { "type": "Point", "coordinates": [ 121.539409971581506, 25.064410010848391 ] } },
{ "type": "Feature", "properties": { "name": "實踐大學附設臺北市私立幼兒園", "district": "中山區", "type": "私立", "address": "[104]大直街70號1樓", "telephone": "(02)25336078", "people": "150", "quasi-public": "無", "lng": 121.54622999091924, "lat": 25.083580010143848 }, "geometry": { "type": "Point", "coordinates": [ 121.546229990919244, 25.083580010143848 ] } },
{ "type": "Feature", "properties": { "name": "臺北市私立新生幼兒園", "district": "中山區", "type": "私立", "address": "[104]新生北路2段125號1、2樓", "telephone": "(02)25414534", "people": "390", "quasi-public": "無", "lng": 121.52794998210294, "lat": 25.059689993532231 }, "geometry": { "type": "Point", "coordinates": [ 121.527949982102939, 25.059689993532231 ] } },
{ "type": "Feature", "properties": { "name": "臺北市私立大愛幼兒園", "district": "中山區", "type": "私立", "address": "[104]松江路221巷15號1樓", "telephone": "(02)25023200", "people": "31", "quasi-public": "無", "lng": 121.53507996422007, "lat": 25.058400018633535 }, "geometry": { "type": "Point", "coordinates": [ 121.535079964220074, 25.058400018633535 ] } },
{ "type": "Feature", "properties": { "name": "臺北市私立新自立全人幼兒園", "district": "中山區", "type": "私立", "address": "[104]德惠街150號2樓及152號1、2樓", "telephone": "(02)25964546", "people": "75", "quasi-public": "無", "lng": 121.53093000013888, "lat": 25.066460014817523 }, "geometry": { "type": "Point", "coordinates": [ 121.530930000138881, 25.066460014817523 ] } },
{ "type": "Feature", "properties": { "name": "臺北市私立友丞幼兒園", "district": "中山區", "type": "私立", "address": "[104]錦州街452號1、2樓", "telephone": "(02)25093438", "people": "40", "quasi-public": "無", "lng": 121.54350000505497, "lat": 25.060090019861278 }, "geometry": { "type": "Point", "coordinates": [ 121.543500005054966, 25.060090019861278 ] } },
{ "type": "Feature", "properties": { "name": "臺北市私立韋斯登幼兒園", "district": "中山區", "type": "私立", "address": "[104]合江街73巷33號1樓", "telephone": "(02)25081568", "people": "24", "quasi-public": "無", "lng": 121.54024003145298, "lat": 25.058850001105498 }, "geometry": { "type": "Point", "coordinates": [ 121.540240031452981, 25.058850001105498 ] } },
{ "type": "Feature", "properties": { "name": "臺北市私立龍江幼兒園", "district": "中山區", "type": "私立", "address": "[104]龍江路397巷12號1樓", "telephone": "(02)25097435", "people": "20", "quasi-public": "110-112 符合", "lng": 121.54366926896374, "lat": 25.065589489166289 }, "geometry": { "type": "Point", "coordinates": [ 121.54366926896374, 25.065589489166289 ] } },
{ "type": "Feature", "properties": { "name": "臺北市私立晨星蒙特梭利幼兒園", "district": "中山區", "type": "私立", "address": "[104]龍江路114巷6號1樓", "telephone": "(02)25047216", "people": "32", "quasi-public": "110-112 符合", "lng": 121.5404167591623, "lat": 25.053177302064803 }, "geometry": { "type": "Point", "coordinates": [ 121.540416759162298, 25.053177302064803 ] } },
{ "type": "Feature", "properties": { "name": "臺北市私立喬幼國際幼兒園", "district": "中山區", "type": "私立", "address": "[104]民權東路三段63、65、67號2樓至3樓", "telephone": "(02)25181888", "people": "99", "quasi-public": "無", "lng": 121.54329187645065, "lat": 25.062493068286319 }, "geometry": { "type": "Point", "coordinates": [ 121.543291876450652, 25.062493068286319 ] } },
{ "type": "Feature", "properties": { "name": "臺北市私立道明幼兒園", "district": "中山區", "type": "私立", "address": "[104]吉林路378號1、2樓", "telephone": "(02)25942294#1061", "people": "310", "quasi-public": "無", "lng": 121.53024000186952, "lat": 25.064519981418044 }, "geometry": { "type": "Point", "coordinates": [ 121.530240001869515, 25.064519981418044 ] } },
{ "type": "Feature", "properties": { "name": "臺北市私立大智幼兒園", "district": "中山區", "type": "私立", "address": "[104]明水路397巷7弄24號1樓", "telephone": "(02)25320696", "people": "40", "quasi-public": "110-112 符合", "lng": 121.54918997620661, "lat": 25.077879980708417 }, "geometry": { "type": "Point", "coordinates": [ 121.549189976206605, 25.077879980708417 ] } },
{ "type": "Feature", "properties": { "name": "臺北市私立宜家蒙特梭利幼兒園", "district": "中山區", "type": "私立", "address": "[104]龍江路271巷5號1樓", "telephone": "(02)25023113", "people": "28", "quasi-public": "無", "lng": 121.54136002135527, "lat": 25.059559990213984 }, "geometry": { "type": "Point", "coordinates": [ 121.541360021355274, 25.059559990213984 ] } },
{ "type": "Feature", "properties": { "name": "臺北市私立蒙特梭利花園幼兒園", "district": "中山區", "type": "私立", "address": "[104]明水路397巷7弄2號及2之1號1樓", "telephone": "(02)25329338", "people": "40", "quasi-public": "無", "lng": 121.54790997577265, "lat": 25.077930020670379 }, "geometry": { "type": "Point", "coordinates": [ 121.547909975772654, 25.077930020670379 ] } },
{ "type": "Feature", "properties": { "name": "臺北市私立建國幼兒園", "district": "中山區", "type": "私立", "address": "[104]建國北路二段6巷1號1樓至4樓", "telephone": "(02)25075564", "people": "119", "quasi-public": "無", "lng": 121.53599321890043, "lat": 25.052597316274579 }, "geometry": { "type": "Point", "coordinates": [ 121.53599321890043, 25.052597316274579 ] } },
{ "type": "Feature", "properties": { "name": "臺北市私立笙愛幼兒園", "district": "中山區", "type": "私立", "address": "[104]松江路78巷8號1樓至2樓", "telephone": "(02)25818356", "people": "35", "quasi-public": "無", "lng": 121.53209559078245, "lat": 25.049835113842519 }, "geometry": { "type": "Point", "coordinates": [ 121.532095590782447, 25.049835113842519 ] } },
{ "type": "Feature", "properties": { "name": "臺北市私立喬幼一江幼兒園", "district": "中山區", "type": "私立", "address": "[104]一江街21號1樓及2樓", "telephone": "(02)25628898", "people": "41", "quasi-public": "無", "lng": 121.53161002394353, "lat": 25.052699989198103 }, "geometry": { "type": "Point", "coordinates": [ 121.531610023943529, 25.052699989198103 ] } },
{ "type": "Feature", "properties": { "name": "臺北市私立蘊品幼兒園", "district": "中山區", "type": "私立", "address": "[104]基湖路147號1樓", "telephone": "(02)25322793", "people": "37", "quasi-public": "無", "lng": 121.56381002700135, "lat": 25.078059982079111 }, "geometry": { "type": "Point", "coordinates": [ 121.563810027001352, 25.078059982079111 ] } },
{ "type": "Feature", "properties": { "name": "臺北市臺北捷運職場互助教保服務中心(委託財團法人彭婉如文教基金會辦理)", "district": "中山區", "type": "私立", "address": "[104]中山北路2段48巷7號1樓", "telephone": "(02)25428158", "people": "55", "quasi-public": "無", "lng": 121.52179081853555, "lat": 25.055790558010802 }, "geometry": { "type": "Point", "coordinates": [ 121.52179081853555, 25.055790558010802 ] } },
{ "type": "Feature", "properties": { "name": "臺北市私立大直嘉蒔幼兒園", "district": "中山區", "type": "私立", "address": "[104]樂群二路266巷16號", "telephone": "(02)85027100", "people": "189", "quasi-public": "無", "lng": 121.56194002440287, "lat": 25.077970002348522 }, "geometry": { "type": "Point", "coordinates": [ 121.561940024402872, 25.077970002348522 ] } },
{ "type": "Feature", "properties": { "name": "臺北市奇地職場互助教保服務中心", "district": "中山區", "type": "私立", "address": "[104]敬業一路132號2樓", "telephone": "(02)85011705", "people": "20", "quasi-public": "無", "lng": 121.55262001862405, "lat": 25.083649999035359 }, "geometry": { "type": "Point", "coordinates": [ 121.552620018624054, 25.083649999035359 ] } },
{ "type": "Feature", "properties": { "name": "臺北市私立青林幼兒園", "district": "松山區", "type": "私立", "address": "[105]敦化南路一段80巷20號1樓", "telephone": "(02)27314531", "people": "26", "quasi-public": "110-112 符合", "lng": 121.54789002684311, "lat": 25.046570010039289 }, "geometry": { "type": "Point", "coordinates": [ 121.547890026843106, 25.046570010039289 ] } },
{ "type": "Feature", "properties": { "name": "臺北市私立凱思寶幼兒園", "district": "松山區", "type": "私立", "address": "[105]光復北路100巷8號3樓", "telephone": "(02)25791349", "people": "33", "quasi-public": "無", "lng": 121.55649276179653, "lat": 25.05059775599835 }, "geometry": { "type": "Point", "coordinates": [ 121.556492761796534, 25.05059775599835 ] } },
{ "type": "Feature", "properties": { "name": "臺北市私立德馨幼兒園", "district": "松山區", "type": "私立", "address": "[105]八德路三段12巷20弄18號1樓", "telephone": "(02)25700768", "people": "23", "quasi-public": "無", "lng": 121.54983001833307, "lat": 25.046570010039289 }, "geometry": { "type": "Point", "coordinates": [ 121.549830018333068, 25.046570010039289 ] } },
{ "type": "Feature", "properties": { "name": "臺北市私立三民幼兒園", "district": "松山區", "type": "私立", "address": "[105]民生東路五段69巷2弄37.39.41號1樓", "telephone": "(02)27651882", "people": "180", "quasi-public": "無", "lng": 121.56011997794741, "lat": 25.059490001322459 }, "geometry": { "type": "Point", "coordinates": [ 121.560119977947409, 25.059490001322459 ] } },
{ "type": "Feature", "properties": { "name": "臺北市私立日恩幼兒園", "district": "松山區", "type": "私立", "address": "[105]健康路325巷16號1樓", "telephone": "(02)27421968", "people": "25", "quasi-public": "無", "lng": 121.56732003277506, "lat": 25.055849992230463 }, "geometry": { "type": "Point", "coordinates": [ 121.567320032775058, 25.055849992230463 ] } },
{ "type": "Feature", "properties": { "name": "財團法人福智文教基金會附設臺北市私立妙慧幼兒園", "district": "松山區", "type": "私立", "address": "[105]南京東路4段133巷5弄25號1至2樓", "telephone": "(02)25451307", "people": "40", "quasi-public": "110-112 符合", "lng": 121.55607000997105, "lat": 25.05208999619451 }, "geometry": { "type": "Point", "coordinates": [ 121.556070009971052, 25.05208999619451 ] } },
{ "type": "Feature", "properties": { "name": "財團法人福智文教基金會附設臺北市私立妙行幼兒園", "district": "松山區", "type": "私立", "address": "[105]南京東路4段133巷5弄23號1樓", "telephone": "(02)25451351", "people": "34", "quasi-public": "110-112 符合", "lng": 121.55597998833099, "lat": 25.052079979820221 }, "geometry": { "type": "Point", "coordinates": [ 121.555979988330989, 25.052079979820221 ] } },
{ "type": "Feature", "properties": { "name": "臺北市立敦化國民中學教師會附設臺北市私立員工子女幼兒園", "district": "松山區", "type": "私立", "address": "[105]南京東路3段300號2樓", "telephone": "(02)87717890#317", "people": "32", "quasi-public": "110-112 符合", "lng": 121.54678998587036, "lat": 25.05151998486906 }, "geometry": { "type": "Point", "coordinates": [ 121.546789985870362, 25.05151998486906 ] } },
{ "type": "Feature", "properties": { "name": "臺北市私立卡兒堡幼兒園", "district": "松山區", "type": "私立", "address": "[105]八德路三段12巷57弄39.41號1樓", "telephone": "(02)25784555", "people": "56", "quasi-public": "無", "lng": 121.55223998313409, "lat": 25.045379989335956 }, "geometry": { "type": "Point", "coordinates": [ 121.552239983134086, 25.045379989335956 ] } },
{ "type": "Feature", "properties": { "name": "臺北市私立天喜幼兒園", "district": "松山區", "type": "私立", "address": "[105]民權東路五段102號1、2樓、民權東路五段104巷2號1、2樓", "telephone": "(02)27672567", "people": "70", "quasi-public": "110-112 符合", "lng": 121.56770995891083, "lat": 25.063260013732716 }, "geometry": { "type": "Point", "coordinates": [ 121.567709958910825, 25.063260013732716 ] } },
{ "type": "Feature", "properties": { "name": "臺北市私立嘉勝幼兒園", "district": "松山區", "type": "私立", "address": "[105]三民路9-17、9-18、9-19、9-20號1樓", "telephone": "(02)27648859", "people": "30", "quasi-public": "無", "lng": 121.56372997982601, "lat": 25.053630003264928 }, "geometry": { "type": "Point", "coordinates": [ 121.563729979826007, 25.053630003264928 ] } },
{ "type": "Feature", "properties": { "name": "臺北市私立嘉維幼兒園", "district": "松山區", "type": "私立", "address": "[105]三民路9-21、9-22、9-23、9-24號1樓", "telephone": "(02)27648859", "people": "32", "quasi-public": "無", "lng": 121.56372997982601, "lat": 25.053569988838191 }, "geometry": { "type": "Point", "coordinates": [ 121.563729979826007, 25.053569988838191 ] } },
{ "type": "Feature", "properties": { "name": "臺北市私立喜樂幼兒園", "district": "松山區", "type": "私立", "address": "[105]健康路290之1號1樓", "telephone": "(02)27622872", "people": "40", "quasi-public": "無", "lng": 121.56529001964503, "lat": 25.054070011272131 }, "geometry": { "type": "Point", "coordinates": [ 121.565290019645033, 25.054070011272131 ] } },
{ "type": "Feature", "properties": { "name": "臺北市私立勁寶兒民權幼兒園", "district": "松山區", "type": "私立", "address": "[105]民權東路三段106巷21弄12號1樓", "telephone": "(02)27199719", "people": "36", "quasi-public": "無", "lng": 121.5461178679401, "lat": 25.059518254017082 }, "geometry": { "type": "Point", "coordinates": [ 121.546117867940097, 25.059518254017082 ] } },
{ "type": "Feature", "properties": { "name": "臺北市私立優寶幼兒園", "district": "松山區", "type": "私立", "address": "[105]南京東路四段133巷6弄2號1、2樓", "telephone": "(02)27131091", "people": "120", "quasi-public": "110-112 符合", "lng": 121.5543018058803, "lat": 25.052651120561443 }, "geometry": { "type": "Point", "coordinates": [ 121.5543018058803, 25.052651120561443 ] } },
{ "type": "Feature", "properties": { "name": "臺北市私立郁欣幼兒園", "district": "松山區", "type": "私立", "address": "[105]八德路三段106巷70號", "telephone": "(02)25787470", "people": "60", "quasi-public": "110-112 符合", "lng": 121.55407997851916, "lat": 25.045999998713839 }, "geometry": { "type": "Point", "coordinates": [ 121.554079978519155, 25.045999998713839 ] } },
{ "type": "Feature", "properties": { "name": "臺北市私立維多利亞幼兒園", "district": "松山區", "type": "私立", "address": "[105]民權東路3段160巷19弄17號1樓", "telephone": "(02)27183809", "people": "120", "quasi-public": "無", "lng": 121.54826997851404, "lat": 25.060030005434541 }, "geometry": { "type": "Point", "coordinates": [ 121.548269978514043, 25.060030005434541 ] } },
{ "type": "Feature", "properties": { "name": "臺北市私立民權幼兒園", "district": "松山區", "type": "私立", "address": "[105]富錦街562巷13號1樓", "telephone": "(02)27131092", "people": "83", "quasi-public": "110-112 符合", "lng": 121.56753997391439, "lat": 25.062130007456119 }, "geometry": { "type": "Point", "coordinates": [ 121.567539973914393, 25.062130007456119 ] } },
{ "type": "Feature", "properties": { "name": "財團法人臺北市私立立德幼兒園", "district": "松山區", "type": "私立", "address": "[105]南京東路5段123巷8弄47號1樓", "telephone": "(02)27670043", "people": "270", "quasi-public": "無", "lng": 121.56297996712988, "lat": 25.053539981624823 }, "geometry": { "type": "Point", "coordinates": [ 121.562979967129877, 25.053539981624823 ] } },
{ "type": "Feature", "properties": { "name": "臺北市私立育華幼兒園", "district": "松山區", "type": "私立", "address": "[105]八德路3段12巷51弄44之2號1樓", "telephone": "(02)25706450", "people": "30", "quasi-public": "110-112 符合", "lng": 121.55210000535106, "lat": 25.046069987605364 }, "geometry": { "type": "Point", "coordinates": [ 121.552100005351065, 25.046069987605364 ] } },
{ "type": "Feature", "properties": { "name": "臺北市私立小親親幼兒園", "district": "松山區", "type": "私立", "address": "[105]民生東路4段80巷15弄3號1樓", "telephone": "(02)27131492", "people": "30", "quasi-public": "無", "lng": 121.5532899841449, "lat": 25.056320007451021 }, "geometry": { "type": "Point", "coordinates": [ 121.553289984144897, 25.056320007451021 ] } },
{ "type": "Feature", "properties": { "name": "臺北市私立宜家民權蒙特梭利幼兒園", "district": "松山區", "type": "私立", "address": "[105]民權東路3段140巷4號1樓", "telephone": "(02)25472626", "people": "58", "quasi-public": "無", "lng": 121.54675224679862, "lat": 25.060941819942308 }, "geometry": { "type": "Point", "coordinates": [ 121.546752246798619, 25.060941819942308 ] } },
{ "type": "Feature", "properties": { "name": "臺北市私立松迪幼兒園", "district": "松山區", "type": "私立", "address": "[105]東興路2巷10號1樓", "telephone": "(02)27615555", "people": "21", "quasi-public": "110-112 符合", "lng": 121.56423422525843, "lat": 25.050693559916052 }, "geometry": { "type": "Point", "coordinates": [ 121.564234225258431, 25.050693559916052 ] } },
{ "type": "Feature", "properties": { "name": "臺北市私立資幼幼兒園", "district": "松山區", "type": "私立", "address": "[105]富錦街372號1樓", "telephone": "(02)27674365", "people": "34", "quasi-public": "無", "lng": 121.55872120594546, "lat": 25.060462595457423 }, "geometry": { "type": "Point", "coordinates": [ 121.55872120594546, 25.060462595457423 ] } },
{ "type": "Feature", "properties": { "name": "財團法人臺灣省臺南市天主教鮑思高慈幼會附設臺北市私立思高幼兒園", "district": "松山區", "type": "私立", "address": "[105]民生東路三段125號1樓", "telephone": "(02)27135473", "people": "180", "quasi-public": "無", "lng": 121.54736003910534, "lat": 25.058040015892146 }, "geometry": { "type": "Point", "coordinates": [ 121.547360039105342, 25.058040015892146 ] } },
{ "type": "Feature", "properties": { "name": "育達學校財團法人臺北市私立育達高級中等學校附設臺北市私立點點幼兒園", "district": "松山區", "type": "私立", "address": "[105]南京東路四段120巷31號1樓", "telephone": "(02)25789177", "people": "210", "quasi-public": "無", "lng": 121.55525000838344, "lat": 25.050130013865484 }, "geometry": { "type": "Point", "coordinates": [ 121.555250008383439, 25.050130013865484 ] } },
{ "type": "Feature", "properties": { "name": "臺北市私立馨兒園幼兒園", "district": "松山區", "type": "私立", "address": "[105]八德路三段12巷60號1樓.三段12巷62弄2號1樓", "telephone": "(02)25775928", "people": "40", "quasi-public": "無", "lng": 121.5497625749487, "lat": 25.045742099111035 }, "geometry": { "type": "Point", "coordinates": [ 121.549762574948701, 25.045742099111035 ] } },
{ "type": "Feature", "properties": { "name": "臺北市私立正欣幼兒園", "district": "松山區", "type": "私立", "address": "[105]光復北路165巷5號、7號1樓", "telephone": "(02)27639957", "people": "120", "quasi-public": "110-112 符合", "lng": 121.55568581700528, "lat": 25.057315705036302 }, "geometry": { "type": "Point", "coordinates": [ 121.555685817005283, 25.057315705036302 ] } },
{ "type": "Feature", "properties": { "name": "臺北市私立光華幼兒園", "district": "松山區", "type": "私立", "address": "[105]慶城街16巷3、5號1樓", "telephone": "(02)27154555", "people": "150", "quasi-public": "無", "lng": 121.54636177907479, "lat": 25.053726748374178 }, "geometry": { "type": "Point", "coordinates": [ 121.546361779074786, 25.053726748374178 ] } },
{ "type": "Feature", "properties": { "name": "臺北市私立童欣幼兒園", "district": "松山區", "type": "私立", "address": "[105]富錦街396號、398號1樓", "telephone": "(02)27662965", "people": "60", "quasi-public": "無", "lng": 121.56729661204896, "lat": 25.062754404305558 }, "geometry": { "type": "Point", "coordinates": [ 121.567296612048963, 25.062754404305558 ] } },
{ "type": "Feature", "properties": { "name": "臺北市私立民族幼兒園", "district": "松山區", "type": "私立", "address": "[105]新中街4巷6、8號1樓", "telephone": "(02)27612638", "people": "60", "quasi-public": "110-112 符合", "lng": 121.56109001560185, "lat": 25.057500011780064 }, "geometry": { "type": "Point", "coordinates": [ 121.561090015601849, 25.057500011780064 ] } },
{ "type": "Feature", "properties": { "name": "臺北市私立多多優質幼兒園", "district": "松山區", "type": "私立", "address": "[105]光復南路46巷25.27,29號1樓", "telephone": "(02)25791370", "people": "75", "quasi-public": "110-112 符合", "lng": 121.55613002439782, "lat": 25.046069987605364 }, "geometry": { "type": "Point", "coordinates": [ 121.556130024397817, 25.046069987605364 ] } },
{ "type": "Feature", "properties": { "name": "臺北市私立小慶園幼兒園", "district": "松山區", "type": "私立", "address": "[105]慶城街16巷9-1號1樓", "telephone": "(02)27190521", "people": "30", "quasi-public": "無", "lng": 121.54622999091924, "lat": 25.053660010478296 }, "geometry": { "type": "Point", "coordinates": [ 121.546229990919244, 25.053660010478296 ] } },
{ "type": "Feature", "properties": { "name": "臺北市私立小敦園幼兒園", "district": "松山區", "type": "私立", "address": "[105]敦化北路145巷55號1樓", "telephone": "(02)25459211", "people": "19", "quasi-public": "無", "lng": 121.55153003593512, "lat": 25.053690017691665 }, "geometry": { "type": "Point", "coordinates": [ 121.551530035935116, 25.053690017691665 ] } },
{ "type": "Feature", "properties": { "name": "臺北市私立正欣啓蒙幼兒園", "district": "松山區", "type": "私立", "address": "[105]光復北路165巷3號1樓", "telephone": "(02)27639957", "people": "27", "quasi-public": "110-112 符合", "lng": 121.55692999323685, "lat": 25.057500011780064 }, "geometry": { "type": "Point", "coordinates": [ 121.556929993236849, 25.057500011780064 ] } },
{ "type": "Feature", "properties": { "name": "臺北市私立賀瑞幼兒園", "district": "松山區", "type": "私立", "address": "[105]南京東路四段53巷11弄1號及3號1樓", "telephone": "(02)27127575", "people": "64", "quasi-public": "無", "lng": 121.55105000434025, "lat": 25.053239993310186 }, "geometry": { "type": "Point", "coordinates": [ 121.551050004340254, 25.053239993310186 ] } },
{ "type": "Feature", "properties": { "name": "臺北市私立哈寶寶幼兒園", "district": "松山區", "type": "私立", "address": "[105]民生東路五段69巷2弄13號及15號1樓", "telephone": "(02)37653868", "people": "40", "quasi-public": "無", "lng": 121.55886998472681, "lat": 25.059399979682354 }, "geometry": { "type": "Point", "coordinates": [ 121.558869984726812, 25.059399979682354 ] } },
{ "type": "Feature", "properties": { "name": "臺北市私立格爾幼兒園", "district": "松山區", "type": "私立", "address": "[105]八德路二段402號1至2樓", "telephone": "(02)87738855", "people": "96", "quasi-public": "無", "lng": 121.54667004083592, "lat": 25.048060019057274 }, "geometry": { "type": "Point", "coordinates": [ 121.54667004083592, 25.048060019057274 ] } },
{ "type": "Feature", "properties": { "name": "臺北市私立豐村幼兒園", "district": "松山區", "type": "私立", "address": "[105]八德路四段106巷2弄4號1樓", "telephone": "(02)27619160", "people": "29", "quasi-public": "無", "lng": 121.560800001752, "lat": 25.048100000735417 }, "geometry": { "type": "Point", "coordinates": [ 121.560800001752, 25.048100000735417 ] } },
{ "type": "Feature", "properties": { "name": "臺北市私立聖如幼兒園", "district": "松山區", "type": "私立", "address": "[105]復興北路361巷26號1樓", "telephone": "(02)27180033", "people": "34", "quasi-public": "110-112 符合", "lng": 121.54618003477628, "lat": 25.060320019284418 }, "geometry": { "type": "Point", "coordinates": [ 121.546180034776285, 25.060320019284418 ] } },
{ "type": "Feature", "properties": { "name": "臺北市私立聖儒幼兒園", "district": "松山區", "type": "私立", "address": "[105]復興北路361巷24號1樓", "telephone": "(02)27173888", "people": "33", "quasi-public": "110-112 符合", "lng": 121.54606998038759, "lat": 25.060320019284418 }, "geometry": { "type": "Point", "coordinates": [ 121.546069980387585, 25.060320019284418 ] } },
{ "type": "Feature", "properties": { "name": "臺北市私立寶仁蒙特梭利幼兒園", "district": "松山區", "type": "私立", "address": "[105]南京東路五段23巷6弄9號及11號1樓", "telephone": "(02)27568845", "people": "50", "quasi-public": "無", "lng": 121.55830998977569, "lat": 25.05220000867368 }, "geometry": { "type": "Point", "coordinates": [ 121.558309989775694, 25.05220000867368 ] } },
{ "type": "Feature", "properties": { "name": "臺北市私立純青幼兒園", "district": "松山區", "type": "私立", "address": "[105]光復北路190巷35號1樓", "telephone": "(02)27171217", "people": "95", "quasi-public": "111-112 符合", "lng": 121.5543200362261, "lat": 25.054680004275724 }, "geometry": { "type": "Point", "coordinates": [ 121.554320036226102, 25.054680004275724 ] } },
{ "type": "Feature", "properties": { "name": "臺北市私立寶仁幼兒園", "district": "松山區", "type": "私立", "address": "[105]光復北路230巷1號1樓", "telephone": "(02)27150971", "people": "55", "quasi-public": "無", "lng": 121.55488889990991, "lat": 25.056212713700013 }, "geometry": { "type": "Point", "coordinates": [ 121.554888899909912, 25.056212713700013 ] } },
{ "type": "Feature", "properties": { "name": "臺北市私立健寶兒幼兒園", "district": "松山區", "type": "私立", "address": "[105]敦化北路222巷11之1、13號1樓", "telephone": "(02)27123455", "people": "48", "quasi-public": "無", "lng": 121.54826997851404, "lat": 25.059240011060254 }, "geometry": { "type": "Point", "coordinates": [ 121.548269978514043, 25.059240011060254 ] } },
{ "type": "Feature", "properties": { "name": "臺北市私立耕心幼兒園", "district": "松山區", "type": "私立", "address": "[105]南京東路四段53巷11弄2號1樓至2樓", "telephone": "(02)25463743", "people": "40", "quasi-public": "無", "lng": 121.55039675587845, "lat": 25.05329271009078 }, "geometry": { "type": "Point", "coordinates": [ 121.550396755878452, 25.05329271009078 ] } },
{ "type": "Feature", "properties": { "name": "臺北市私立圓圓幼兒園", "district": "松山區", "type": "私立", "address": "[105]慶城街20號1樓", "telephone": "(02)27121692", "people": "240", "quasi-public": "無", "lng": 121.54557997432795, "lat": 25.053380013002723 }, "geometry": { "type": "Point", "coordinates": [ 121.54557997432795, 25.053380013002723 ] } },
{ "type": "Feature", "properties": { "name": "內政部國土管理署職場互助教保服務中心（委託社團法人中華音樂舞蹈暨表演藝術教育協會辦理）", "district": "松山區", "type": "私立", "address": "[105]八德路二段342號", "telephone": "(02)87721616", "people": "30", "quasi-public": "無", "lng": 121.5444299772123, "lat": 25.047570012997639 }, "geometry": { "type": "Point", "coordinates": [ 121.544429977212303, 25.047570012997639 ] } },
{ "type": "Feature", "properties": { "name": "國防部軍備局健安新城職場互助教保服務中心（委託社團法人新竹市教保人員協會辦理）", "district": "松山區", "type": "私立", "address": "[105]健康路225巷6號1樓", "telephone": "(02)2742-0292", "people": "40", "quasi-public": "無", "lng": 121.56225992836779, "lat": 25.055399927953143 }, "geometry": { "type": "Point", "coordinates": [ 121.562259928367794, 25.055399927953143 ] } },
{ "type": "Feature", "properties": { "name": "三軍總醫院松山分院職場互助教保服務中心（委託社團法人臺北市飛亞特全人福利服務文教發展協會辦理）", "district": "松山區", "type": "私立", "address": "[105]延壽街314巷6號", "telephone": "(02)87875125", "people": "50", "quasi-public": "無", "lng": 121.5618199955494, "lat": 25.05625001855951 }, "geometry": { "type": "Point", "coordinates": [ 121.561819995549399, 25.05625001855951 ] } },
{ "type": "Feature", "properties": { "name": "國防部資通電軍指揮部平安新村職場互助教保服務中心（委託財團法人經國管理暨健康學院辦理）", "district": "松山區", "type": "私立", "address": "[105]延壽街330巷12-1號、12-2號及16弄2號", "telephone": "(02)27566013", "people": "40", "quasi-public": "無", "lng": 121.56011000348258, "lat": 25.055539987541522 }, "geometry": { "type": "Point", "coordinates": [ 121.560110003482578, 25.055539987541522 ] } },
{ "type": "Feature", "properties": { "name": "臺北市私立愛英幼兒園", "district": "大安區", "type": "私立", "address": "[106]金山南路二段159巷3號", "telephone": "(02)23219844", "people": "60", "quasi-public": "無", "lng": 121.52676997777388, "lat": 25.029209998915533 }, "geometry": { "type": "Point", "coordinates": [ 121.526769977773881, 25.029209998915533 ] } },
{ "type": "Feature", "properties": { "name": "財團法人天主教會台北教區附設臺北市私立信光幼兒園", "district": "大安區", "type": "私立", "address": "[106]通化街178號1、2、3樓", "telephone": "(02)27386770", "people": "210", "quasi-public": "無", "lng": 121.55328000968007, "lat": 25.027480016009633 }, "geometry": { "type": "Point", "coordinates": [ 121.553280009680066, 25.027480016009633 ] } },
{ "type": "Feature", "properties": { "name": "財團法人臺灣大學校園建設基金會附設臺北市私立幼兒園", "district": "大安區", "type": "私立", "address": "[106]基隆路四段144巷59弄12號1樓", "telephone": "(02)33664428", "people": "120", "quasi-public": "無", "lng": 121.5383382708536, "lat": 25.014627066041331 }, "geometry": { "type": "Point", "coordinates": [ 121.5383382708536, 25.014627066041331 ] } },
{ "type": "Feature", "properties": { "name": "財團法人台北市基督教浸信會懷恩堂附設臺北市私立懷恩幼兒園", "district": "大安區", "type": "私立", "address": "[106]新生南路3段90號1樓", "telephone": "(02)23636593", "people": "150", "quasi-public": "無", "lng": 121.5331900126921, "lat": 25.017780016650349 }, "geometry": { "type": "Point", "coordinates": [ 121.533190012692103, 25.017780016650349 ] } },
{ "type": "Feature", "properties": { "name": "臺北市私立童年空間幼兒園", "district": "大安區", "type": "私立", "address": "[106]信義路四段265巷20弄18號1樓", "telephone": "(02)27840326#14", "people": "24", "quasi-public": "無", "lng": 121.5542984129102, "lat": 25.034907390452986 }, "geometry": { "type": "Point", "coordinates": [ 121.5542984129102, 25.034907390452986 ] } },
{ "type": "Feature", "properties": { "name": "臺北市私立陽光寶貝幼兒園", "district": "大安區", "type": "私立", "address": "[106]新生南路1段133巷9號1、2樓", "telephone": "(02)27038699", "people": "90", "quasi-public": "無", "lng": 121.53416786685055, "lat": 25.037428236437883 }, "geometry": { "type": "Point", "coordinates": [ 121.534167866850552, 25.037428236437883 ] } },
{ "type": "Feature", "properties": { "name": "財團法人臺北市私立蒙特梭利幼兒園", "district": "大安區", "type": "私立", "address": "[106]新生南路1段103巷27號1樓、2樓", "telephone": "(02)27529503#20", "people": "150", "quasi-public": "無", "lng": 121.53530996364321, "lat": 25.040799991712348 }, "geometry": { "type": "Point", "coordinates": [ 121.535309963643215, 25.040799991712348 ] } },
{ "type": "Feature", "properties": { "name": "臺北市私立格林菲爾幼兒園", "district": "大安區", "type": "私立", "address": "[106]安和路二段181巷2、4、6號1樓及4號2樓之1、2樓之2與189巷5號1樓", "telephone": "(02)87329191", "people": "152", "quasi-public": "無", "lng": 121.54985218436721, "lat": 25.027324186159071 }, "geometry": { "type": "Point", "coordinates": [ 121.549852184367211, 25.027324186159071 ] } },
{ "type": "Feature", "properties": { "name": "臺北市私立童馨幼兒園", "district": "大安區", "type": "私立", "address": "[106]樂業街182號2樓及184號2樓", "telephone": "(02)27320003", "people": "50", "quasi-public": "110-112 符合", "lng": 121.55403999684103, "lat": 25.019089982388124 }, "geometry": { "type": "Point", "coordinates": [ 121.554039996841027, 25.019089982388124 ] } },
{ "type": "Feature", "properties": { "name": "臺北市私立娃娃家蒙特梭利幼兒園", "district": "大安區", "type": "私立", "address": "[106]信義路四段61號1樓", "telephone": "(02)27009515", "people": "58", "quasi-public": "無", "lng": 121.54537000765345, "lat": 25.033770005700077 }, "geometry": { "type": "Point", "coordinates": [ 121.545370007653446, 25.033770005700077 ] } },
{ "type": "Feature", "properties": { "name": "臺北市私立橘子樹幼兒園", "district": "大安區", "type": "私立", "address": "[106]瑞安街208巷2號及4號1樓", "telephone": "(02)27087011", "people": "40", "quasi-public": "110-112 符合", "lng": 121.54044002366271, "lat": 25.028049985425568 }, "geometry": { "type": "Point", "coordinates": [ 121.540440023662711, 25.028049985425568 ] } },
{ "type": "Feature", "properties": { "name": "臺北市私立勁寶兒幼兒園", "district": "大安區", "type": "私立", "address": "[106]復興南路一段92之8號1樓及76號2樓之3", "telephone": "(02)27111077", "people": "51", "quasi-public": "無", "lng": 121.54359002669509, "lat": 25.043459988685072 }, "geometry": { "type": "Point", "coordinates": [ 121.543590026695085, 25.043459988685072 ] } },
{ "type": "Feature", "properties": { "name": "臺北市私立信宜幼兒園", "district": "大安區", "type": "私立", "address": "[106]安和路一段102巷17號1樓", "telephone": "(02)27099157", "people": "35", "quasi-public": "無", "lng": 121.55091002655723, "lat": 25.034360007864592 }, "geometry": { "type": "Point", "coordinates": [ 121.550910026557233, 25.034360007864592 ] } },
{ "type": "Feature", "properties": { "name": "臺北市私立幼苗幼兒園", "district": "大安區", "type": "私立", "address": "[106]安和路一段127巷13號、15、19號1樓", "telephone": "(02)27000178", "people": "66", "quasi-public": "無", "lng": 121.55313883284983, "lat": 25.034693607271862 }, "geometry": { "type": "Point", "coordinates": [ 121.553138832849825, 25.034693607271862 ] } },
{ "type": "Feature", "properties": { "name": "臺北市私立邦尼幼兒園", "district": "大安區", "type": "私立", "address": "[106]和平東路一段248巷18號1樓及雲和街111號1樓", "telephone": "(02)23685253", "people": "28", "quasi-public": "無", "lng": 121.53249003995791, "lat": 25.023380008071371 }, "geometry": { "type": "Point", "coordinates": [ 121.532490039957906, 25.023380008071371 ] } },
{ "type": "Feature", "properties": { "name": "臺北市私立心聲幼兒園", "district": "大安區", "type": "私立", "address": "[106]新生南路三段22巷14號1樓", "telephone": "(02)23634169", "people": "25", "quasi-public": "無", "lng": 121.53355998989827, "lat": 25.02403999912741 }, "geometry": { "type": "Point", "coordinates": [ 121.533559989898265, 25.02403999912741 ] } },
{ "type": "Feature", "properties": { "name": "臺北市私立真心蒙特梭利幼兒園", "district": "大安區", "type": "私立", "address": "[106]安和路1段112巷20號1樓", "telephone": "(02)27050319", "people": "28", "quasi-public": "無", "lng": 121.55068002713409, "lat": 25.03382000375251 }, "geometry": { "type": "Point", "coordinates": [ 121.550680027134092, 25.03382000375251 ] } },
{ "type": "Feature", "properties": { "name": "臺北市私立長青幼兒園", "district": "大安區", "type": "私立", "address": "[106]基隆路二段232號2樓", "telephone": "(02)27327056", "people": "65", "quasi-public": "無", "lng": 121.55107003708883, "lat": 25.023280011966492 }, "geometry": { "type": "Point", "coordinates": [ 121.551070037088834, 25.023280011966492 ] } },
{ "type": "Feature", "properties": { "name": "臺北市私立卡朵蒙特梭利幼兒園", "district": "大安區", "type": "私立", "address": "[106]四維路192巷12號1樓", "telephone": "(02)27084028", "people": "30", "quasi-public": "無", "lng": 121.54720002857374, "lat": 25.027229983837913 }, "geometry": { "type": "Point", "coordinates": [ 121.547200028573741, 25.027229983837913 ] } },
{ "type": "Feature", "properties": { "name": "臺北市私立何嘉仁延吉幼兒園", "district": "大安區", "type": "私立", "address": "[106]延吉街250號2樓", "telephone": "(02)27086092", "people": "346", "quasi-public": "無", "lng": 121.55606003550628, "lat": 25.034859988389002 }, "geometry": { "type": "Point", "coordinates": [ 121.556060035506277, 25.034859988389002 ] } },
{ "type": "Feature", "properties": { "name": "臺北市私立新生寶貝幼兒園", "district": "大安區", "type": "私立", "address": "[106]信義路2段230號2樓", "telephone": "(02)23959817", "people": "220", "quasi-public": "無", "lng": 121.53188997950957, "lat": 25.033429993797753 }, "geometry": { "type": "Point", "coordinates": [ 121.531889979509572, 25.033429993797753 ] } },
{ "type": "Feature", "properties": { "name": "臺北市私立上學趣蒙特梭利幼兒園", "district": "大安區", "type": "私立", "address": "[106]忠孝東路3段251巷9弄 8、10號1樓", "telephone": "(02)87739963", "people": "30", "quasi-public": "無", "lng": 121.54212998298095, "lat": 25.043199982048577 }, "geometry": { "type": "Point", "coordinates": [ 121.542129982980953, 25.043199982048577 ] } },
{ "type": "Feature", "properties": { "name": "臺北市私立仁和幼兒園", "district": "大安區", "type": "私立", "address": "[106]忠孝東路三段251巷9弄8號", "telephone": "(02)27111787", "people": "60", "quasi-public": "無", "lng": 121.54202001241129, "lat": 25.043220014797157 }, "geometry": { "type": "Point", "coordinates": [ 121.542020012411285, 25.043220014797157 ] } },
{ "type": "Feature", "properties": { "name": "財團法人中華基督教衛理公會附設臺北市私立衛理幼兒園", "district": "大安區", "type": "私立", "address": "[106]新生南路一段113號1樓及117號1樓", "telephone": "(02)27713679#777", "people": "90", "quasi-public": "無", "lng": 121.53306000937386, "lat": 25.039690018184345 }, "geometry": { "type": "Point", "coordinates": [ 121.533060009373855, 25.039690018184345 ] } },
{ "type": "Feature", "properties": { "name": "臺北市私立育樂幼兒園", "district": "大安區", "type": "私立", "address": "[106]和平東路三段308巷40號1樓", "telephone": "(02)27355304", "people": "24", "quasi-public": "110-112 符合", "lng": 121.55537003723691, "lat": 25.019609995661128 }, "geometry": { "type": "Point", "coordinates": [ 121.555370037236912, 25.019609995661128 ] } },
{ "type": "Feature", "properties": { "name": "財團法人臺北市私立立人國際國民中小學附設臺北市私立幼兒園", "district": "大安區", "type": "私立", "address": "[106]安和路二段99號", "telephone": "(02)27361388#518", "people": "240", "quasi-public": "無", "lng": 121.5518900386765, "lat": 25.029800001080048 }, "geometry": { "type": "Point", "coordinates": [ 121.551890038676504, 25.029800001080048 ] } },
{ "type": "Feature", "properties": { "name": "臺北市私立佳安幼兒園", "district": "大安區", "type": "私立", "address": "[106]樂業街131、133號1樓", "telephone": "(02)27332971", "people": "60", "quasi-public": "110-112 符合", "lng": 121.55290457006112, "lat": 25.020228509917544 }, "geometry": { "type": "Point", "coordinates": [ 121.552904570061116, 25.020228509917544 ] } },
{ "type": "Feature", "properties": { "name": "臺北市私立信望愛幼兒園", "district": "大安區", "type": "私立", "address": "[106]敦化南路二段172巷3號1樓", "telephone": "(02)27330444", "people": "30", "quasi-public": "無", "lng": 121.54669552509785, "lat": 25.02411510471638 }, "geometry": { "type": "Point", "coordinates": [ 121.546695525097846, 25.02411510471638 ] } },
{ "type": "Feature", "properties": { "name": "臺北市私立四維幼兒園", "district": "大安區", "type": "私立", "address": "[106]和平東路三段1巷25號", "telephone": "(02)27073718", "people": "120", "quasi-public": "無", "lng": 121.5468599747619, "lat": 25.025660011463643 }, "geometry": { "type": "Point", "coordinates": [ 121.546859974761901, 25.025660011463643 ] } },
{ "type": "Feature", "properties": { "name": "臺北市私立寶血幼兒園", "district": "大安區", "type": "私立", "address": "[106]泰順街60巷18弄8號1樓、2樓及13號1樓", "telephone": "(02)23631896", "people": "210", "quasi-public": "無", "lng": 121.53000871014333, "lat": 25.021938903377798 }, "geometry": { "type": "Point", "coordinates": [ 121.530008710143335, 25.021938903377798 ] } },
{ "type": "Feature", "properties": { "name": "財團法人台灣聖公會附設臺北市私立聖約翰幼兒園", "district": "大安區", "type": "私立", "address": "[106]復興南路二段280號", "telephone": "(02)27327334", "people": "90", "quasi-public": "無", "lng": 121.54326003116705, "lat": 25.024319996602983 }, "geometry": { "type": "Point", "coordinates": [ 121.543260031167051, 25.024319996602983 ] } },
{ "type": "Feature", "properties": { "name": "財團法人天主教會台北教區附設臺北市私立曉星幼兒園", "district": "大安區", "type": "私立", "address": "[106]延吉街254號1樓", "telephone": "(02)27033211", "people": "90", "quasi-public": "無", "lng": 121.55639003103431, "lat": 25.034440013130407 }, "geometry": { "type": "Point", "coordinates": [ 121.556390031034312, 25.034440013130407 ] } },
{ "type": "Feature", "properties": { "name": "財團法人臺北市私立金甌女子高級中學附設臺北市私立幼兒園", "district": "大安區", "type": "私立", "address": "[106]杭州南路二段1號1樓", "telephone": "(02)33931683", "people": "150", "quasi-public": "110-112 符合", "lng": 121.5238300252351, "lat": 25.034290018973081 }, "geometry": { "type": "Point", "coordinates": [ 121.5238300252351, 25.034290018973081 ] } },
{ "type": "Feature", "properties": { "name": "臺北市私立惠真幼兒園", "district": "大安區", "type": "私立", "address": "[106]通化街143巷31號1樓至2樓", "telephone": "(02)27383431", "people": "120", "quasi-public": "110-112 符合", "lng": 121.55581997779933, "lat": 25.028470002593693 }, "geometry": { "type": "Point", "coordinates": [ 121.555819977799331, 25.028470002593693 ] } },
{ "type": "Feature", "properties": { "name": "財團法人臺北市私立復興實驗高級中學附設臺北市私立幼兒園", "district": "大安區", "type": "私立", "address": "[106]敦化南路一段262號1樓", "telephone": "(02)27715859#413", "people": "300", "quasi-public": "無", "lng": 121.54843996351048, "lat": 25.039330015442957 }, "geometry": { "type": "Point", "coordinates": [ 121.548439963510475, 25.039330015442957 ] } },
{ "type": "Feature", "properties": { "name": "新民學校財團法人臺北市私立新民國民小學附設臺北市私立幼兒園", "district": "大安區", "type": "私立", "address": "[106]辛亥路一段113號1樓", "telephone": "(02)23630450#600", "people": "90", "quasi-public": "無", "lng": 121.53185997229622, "lat": 25.022380005113021 }, "geometry": { "type": "Point", "coordinates": [ 121.531859972296218, 25.022380005113021 ] } },
{ "type": "Feature", "properties": { "name": "臺北市私立菁英幼兒園", "district": "大安區", "type": "私立", "address": "[106]新生南路一段119巷15號1樓", "telephone": "(02)27718292", "people": "30", "quasi-public": "無", "lng": 121.53450999480418, "lat": 25.039330015442957 }, "geometry": { "type": "Point", "coordinates": [ 121.534509994804182, 25.039330015442957 ] } },
{ "type": "Feature", "properties": { "name": "臺北市私立安和寶貝幼兒園", "district": "大安區", "type": "私立", "address": "[106]安和路一段78巷1、1之1號及1號共用部分", "telephone": "(02)27029668", "people": "38", "quasi-public": "無", "lng": 121.55205837330533, "lat": 25.035048677191483 }, "geometry": { "type": "Point", "coordinates": [ 121.552058373305329, 25.035048677191483 ] } },
{ "type": "Feature", "properties": { "name": "臺北市私立巧而園幼兒園", "district": "大安區", "type": "私立", "address": "[106]樂利路45巷6號第1、2層", "telephone": "(02)27362869", "people": "52", "quasi-public": "無", "lng": 121.55194996928424, "lat": 25.026634072431662 }, "geometry": { "type": "Point", "coordinates": [ 121.551949969284237, 25.026634072431662 ] } },
{ "type": "Feature", "properties": { "name": "臺北市私立小天心幼兒園", "district": "大安區", "type": "私立", "address": "[106]潮州街57號1樓", "telephone": "(02)23568960", "people": "25", "quasi-public": "110-112 符合", "lng": 121.52385325567967, "lat": 25.029316467614862 }, "geometry": { "type": "Point", "coordinates": [ 121.523853255679668, 25.029316467614862 ] } },
{ "type": "Feature", "properties": { "name": "臺北市私立桔子蒙特梭利幼兒園", "district": "大安區", "type": "私立", "address": "[106]仁愛路三段51巷8號1樓", "telephone": "(02)27790069", "people": "26", "quasi-public": "110-112 符合", "lng": 121.53584003520007, "lat": 25.039849986806445 }, "geometry": { "type": "Point", "coordinates": [ 121.535840035200067, 25.039849986806445 ] } },
{ "type": "Feature", "properties": { "name": "臺北市私立人安幼兒園", "district": "大安區", "type": "私立", "address": "[106]四維路154巷19號1樓", "telephone": "(02)27041113", "people": "24", "quasi-public": "無", "lng": 121.54705996697169, "lat": 25.031069985139681 }, "geometry": { "type": "Point", "coordinates": [ 121.547059966971688, 25.031069985139681 ] } },
{ "type": "Feature", "properties": { "name": "臺北市私立蔚思幼兒園", "district": "大安區", "type": "私立", "address": "[106]安和路二段217巷22、24、26號1、2樓", "telephone": "(02)27350269", "people": "40", "quasi-public": "無", "lng": 121.55102994540353, "lat": 25.025924975175084 }, "geometry": { "type": "Point", "coordinates": [ 121.551029945403528, 25.025924975175084 ] } },
{ "type": "Feature", "properties": { "name": "臺北市私立磊心信義幼兒園", "district": "大安區", "type": "私立", "address": "[106]四維路76巷17號1樓", "telephone": "(02)27014947", "people": "28", "quasi-public": "無", "lng": 121.53005158649513, "lat": 25.046557810084767 }, "geometry": { "type": "Point", "coordinates": [ 121.530051586495134, 25.046557810084767 ] } },
{ "type": "Feature", "properties": { "name": "臺北市私立長青蒙特梭利幼兒園", "district": "大安區", "type": "私立", "address": "[106]基隆路二段232號3樓", "telephone": "(02)27327056", "people": "65", "quasi-public": "無", "lng": 121.55107003708883, "lat": 25.023280011966492 }, "geometry": { "type": "Point", "coordinates": [ 121.551070037088834, 25.023280011966492 ] } },
{ "type": "Feature", "properties": { "name": "臺北市私立爾雅幼兒園", "district": "大安區", "type": "私立", "address": "[106]大安路二段160巷20號1樓", "telephone": "(02)27022953", "people": "24", "quasi-public": "無", "lng": 121.54534000044004, "lat": 25.028710018391124 }, "geometry": { "type": "Point", "coordinates": [ 121.545340000440035, 25.028710018391124 ] } },
{ "type": "Feature", "properties": { "name": "臺北市私立及愛菁英幼兒園", "district": "大安區", "type": "私立", "address": "[106]辛亥路一段79號2樓之1", "telephone": "(02)23683686", "people": "32", "quasi-public": "無", "lng": 121.53053999018414, "lat": 25.021280006049793 }, "geometry": { "type": "Point", "coordinates": [ 121.530539990184138, 25.021280006049793 ] } },
{ "type": "Feature", "properties": { "name": "臺北市私立光目華德福幼兒園", "district": "大安區", "type": "私立", "address": "[106]延吉街241巷2弄11號1、2樓", "telephone": "(02)23253638", "people": "90", "quasi-public": "無", "lng": 121.55622210971428, "lat": 25.035278516410234 }, "geometry": { "type": "Point", "coordinates": [ 121.556222109714284, 25.035278516410234 ] } },
{ "type": "Feature", "properties": { "name": "臺北市私立禾心蒙特梭利幼兒園", "district": "大安區", "type": "私立", "address": "[106]安和路一段135巷16號1樓", "telephone": "(02)27014947", "people": "25", "quasi-public": "無", "lng": 121.55354999078139, "lat": 25.034169990119608 }, "geometry": { "type": "Point", "coordinates": [ 121.553549990781391, 25.034169990119608 ] } },
{ "type": "Feature", "properties": { "name": "臺北市私立華菂幼兒園", "district": "大安區", "type": "私立", "address": "[106]安和路二段217巷30、32號1樓", "telephone": "(02)27350267", "people": "90", "quasi-public": "無", "lng": 121.55118073075499, "lat": 25.025967575883442 }, "geometry": { "type": "Point", "coordinates": [ 121.551180730754993, 25.025967575883442 ] } },
{ "type": "Feature", "properties": { "name": "臺北市私立上愛幼兒園", "district": "大安區", "type": "私立", "address": "[106]溫州街52巷14號1樓", "telephone": "(02)23629886", "people": "23", "quasi-public": "無", "lng": 121.53221997503761, "lat": 25.020920003308419 }, "geometry": { "type": "Point", "coordinates": [ 121.532219975037606, 25.020920003308419 ] } },
{ "type": "Feature", "properties": { "name": "臺北市私立格登幼兒園", "district": "大安區", "type": "私立", "address": "[106]仁愛路三段26之1號1樓、26之2號1樓及26號2樓之1", "telephone": "(02)27548168", "people": "64", "quasi-public": "無", "lng": 121.53706002120725, "lat": 25.039779997914934 }, "geometry": { "type": "Point", "coordinates": [ 121.537060021207253, 25.039779997914934 ] } },
{ "type": "Feature", "properties": { "name": "臺北市私立經緯幼兒園", "district": "大安區", "type": "私立", "address": "[106]復興南路二段160巷16號1樓", "telephone": "(02)27045180", "people": "31", "quasi-public": "110-112 符合", "lng": 121.54232000072597, "lat": 25.027790020698589 }, "geometry": { "type": "Point", "coordinates": [ 121.542320000725965, 25.027790020698589 ] } },
{ "type": "Feature", "properties": { "name": "臺北市私立貓熊幼兒園", "district": "大安區", "type": "私立", "address": "[106]建國南路二段79巷33號1樓及69巷26號1樓、2樓、2樓之1及28號2樓", "telephone": "(02)27048016#22", "people": "180", "quasi-public": "無", "lng": 121.53920000490695, "lat": 25.030930007356659 }, "geometry": { "type": "Point", "coordinates": [ 121.539200004906945, 25.030930007356659 ] } },
{ "type": "Feature", "properties": { "name": "有限責任臺北市立金華國民中學員生消費合作社附設臺北市私立員工子女幼兒園", "district": "大安區", "type": "私立", "address": "[106]新生南路二段32號1樓(南新樓1樓)", "telephone": "(02)33931799#591", "people": "40", "quasi-public": "110-112 符合", "lng": 121.53312002380056, "lat": 25.031190013993154 }, "geometry": { "type": "Point", "coordinates": [ 121.533120023800564, 25.031190013993154 ] } },
{ "type": "Feature", "properties": { "name": "臺北市私立家森幼兒園", "district": "大安區", "type": "私立", "address": "[106]羅斯福路二段101巷19號1樓", "telephone": "(02)23643218", "people": "28", "quasi-public": "無", "lng": 121.52560003172869, "lat": 25.024799986288329 }, "geometry": { "type": "Point", "coordinates": [ 121.525600031728686, 25.024799986288329 ] } },
{ "type": "Feature", "properties": { "name": "財團法人中國文化大學附設臺北市私立文化幼兒園", "district": "大安區", "type": "私立", "address": "[106]瑞安街256巷18號及20號1樓", "telephone": "(02)27085583", "people": "56", "quasi-public": "無", "lng": 121.5388099949522, "lat": 25.027229983837913 }, "geometry": { "type": "Point", "coordinates": [ 121.538809994952203, 25.027229983837913 ] } },
{ "type": "Feature", "properties": { "name": "臺北市私立巧可麗國際幼兒園", "district": "大安區", "type": "私立", "address": "[106]泰順街45號2樓", "telephone": "(02)33653322", "people": "114", "quasi-public": "無", "lng": 121.53129997734504, "lat": 25.022670018962899 }, "geometry": { "type": "Point", "coordinates": [ 121.531299977345043, 25.022670018962899 ] } },
{ "type": "Feature", "properties": { "name": "臺北市私立亞瑟王皇家幼兒園", "district": "大安區", "type": "私立", "address": "[106]潮州街108號2樓", "telephone": "(02)23584018", "people": "39", "quasi-public": "無", "lng": 121.52596003447007, "lat": 25.028849996174145 }, "geometry": { "type": "Point", "coordinates": [ 121.525960034470074, 25.028849996174145 ] } },
{ "type": "Feature", "properties": { "name": "臺北市私立敦歆幼兒園", "district": "大安區", "type": "私立", "address": "[106]忠孝東路三段217巷2弄8號1樓", "telephone": "(02)27761626", "people": "31", "quasi-public": "111-112 符合", "lng": 121.54018001702622, "lat": 25.042209995464518 }, "geometry": { "type": "Point", "coordinates": [ 121.540180017026216, 25.042209995464518 ] } },
{ "type": "Feature", "properties": { "name": "臺北市私立大成幼兒園", "district": "大安區", "type": "私立", "address": "[106]雲和街8號1樓", "telephone": "(02)23697443", "people": "28", "quasi-public": "110-112 符合", "lng": 121.5306000046109, "lat": 25.023510011389618 }, "geometry": { "type": "Point", "coordinates": [ 121.530600004610903, 25.023510011389618 ] } },
{ "type": "Feature", "properties": { "name": "臺北市私立丘山幼兒園", "district": "大安區", "type": "私立", "address": "[106]忠孝東路三段10巷8號1樓", "telephone": "(02)27711031", "people": "25", "quasi-public": "無", "lng": 121.53343996104479, "lat": 25.041689982191514 }, "geometry": { "type": "Point", "coordinates": [ 121.533439961044792, 25.041689982191514 ] } },
{ "type": "Feature", "properties": { "name": "臺北市私立蔚景幼兒園", "district": "大安區", "type": "私立", "address": "[106]復興南路1段313巷6號1,2樓", "telephone": "(02)27042496", "people": "48", "quasi-public": "無", "lng": 121.54502496546306, "lat": 25.03433565188713 }, "geometry": { "type": "Point", "coordinates": [ 121.545024965463057, 25.03433565188713 ] } },
{ "type": "Feature", "properties": { "name": "臺北市私立梓園幼兒園", "district": "大安區", "type": "私立", "address": "[106]信義路二段228巷9號1樓", "telephone": "(02)23570414", "people": "28", "quasi-public": "無", "lng": 121.53173492239364, "lat": 25.031773940981566 }, "geometry": { "type": "Point", "coordinates": [ 121.531734922393639, 25.031773940981566 ] } },
{ "type": "Feature", "properties": { "name": "臺北市私立奇幻幼兒園", "district": "大安區", "type": "私立", "address": "[106]忠孝東路三段217巷1弄7號1樓", "telephone": "(02)27401155", "people": "38", "quasi-public": "111-112 符合", "lng": 121.53935004097377, "lat": 25.042209995464518 }, "geometry": { "type": "Point", "coordinates": [ 121.539350040973773, 25.042209995464518 ] } },
{ "type": "Feature", "properties": { "name": "臺北市私立嘟嘟幼兒園", "district": "大安區", "type": "私立", "address": "[106]光復南路96巷2之1號1樓及98之6號1樓", "telephone": "(02)27218791", "people": "40", "quasi-public": "無", "lng": 121.55662549662893, "lat": 25.043913874686147 }, "geometry": { "type": "Point", "coordinates": [ 121.556625496628925, 25.043913874686147 ] } },
{ "type": "Feature", "properties": { "name": "臺北市私立仁愛幼兒園", "district": "大安區", "type": "私立", "address": "[106]信義路三段147巷15弄27號1樓", "telephone": "(02)27093131", "people": "34", "quasi-public": "無", "lng": 121.54328126491876, "lat": 25.035172292425891 }, "geometry": { "type": "Point", "coordinates": [ 121.543281264918761, 25.035172292425891 ] } },
{ "type": "Feature", "properties": { "name": "臺北市私立熱帶魚幼兒園", "district": "大安區", "type": "私立", "address": "[106]忠孝東路四段170巷24號1樓", "telephone": "(02)27526136", "people": "40", "quasi-public": "無", "lng": 121.55065999438551, "lat": 25.039549998491793 }, "geometry": { "type": "Point", "coordinates": [ 121.550659994385512, 25.039549998491793 ] } },
{ "type": "Feature", "properties": { "name": "臺北市私立心藝術幼兒園", "district": "大安區", "type": "私立", "address": "[106]永康街14巷8號1樓", "telephone": "(02)33222123", "people": "33", "quasi-public": "無", "lng": 121.52909000475381, "lat": 25.031210004832232 }, "geometry": { "type": "Point", "coordinates": [ 121.529090004753812, 25.031210004832232 ] } },
{ "type": "Feature", "properties": { "name": "臺北市私立予心屋幼兒園", "district": "大安區", "type": "私立", "address": "[106]光復南路420巷19號1樓", "telephone": "(02)27056166", "people": "40", "quasi-public": "無", "lng": 121.55642003824767, "lat": 25.036389979085129 }, "geometry": { "type": "Point", "coordinates": [ 121.556420038247666, 25.036389979085129 ] } },
{ "type": "Feature", "properties": { "name": "臺北市私立滿兒圓幼兒園", "district": "大安區", "type": "私立", "address": "[106]仁愛路四段300巷20弄15號1樓", "telephone": "(02)27543381", "people": "38", "quasi-public": "無", "lng": 121.55350003463843, "lat": 25.036330006567908 }, "geometry": { "type": "Point", "coordinates": [ 121.553500034638432, 25.036330006567908 ] } },
{ "type": "Feature", "properties": { "name": "臺北市私立蒙特梭利愛兒園幼兒園", "district": "大安區", "type": "私立", "address": "[106]新生南路一段161巷4之9號1樓", "telephone": "(02)27054343", "people": "32", "quasi-public": "無", "lng": 121.53755928886858, "lat": 25.034566701446625 }, "geometry": { "type": "Point", "coordinates": [ 121.537559288868579, 25.034566701446625 ] } },
{ "type": "Feature", "properties": { "name": "臺北市私立伊帝馬幼兒園", "district": "大安區", "type": "私立", "address": "[106]金山南路二段13巷17號1樓", "telephone": "(02)23966726", "people": "30", "quasi-public": "無", "lng": 121.5283199593091, "lat": 25.033390012119611 }, "geometry": { "type": "Point", "coordinates": [ 121.528319959309101, 25.033390012119611 ] } },
{ "type": "Feature", "properties": { "name": "臺北市私立幼軒幼兒園", "district": "大安區", "type": "私立", "address": "[106]延吉街109號2樓", "telephone": "(02)2772-0366", "people": "27", "quasi-public": "110-112 符合", "lng": 121.55417000015927, "lat": 25.04309001147891 }, "geometry": { "type": "Point", "coordinates": [ 121.554170000159274, 25.04309001147891 ] } },
{ "type": "Feature", "properties": { "name": "臺北市私立享銘幼兒園", "district": "大安區", "type": "私立", "address": "[106]信義路三段31巷11號1樓", "telephone": "(02)27546816", "people": "31", "quasi-public": "110-112 符合", "lng": 121.5347600269759, "lat": 25.035419983340162 }, "geometry": { "type": "Point", "coordinates": [ 121.534760026975903, 25.035419983340162 ] } },
{ "type": "Feature", "properties": { "name": "臺北市私立三暉幼兒園", "district": "大安區", "type": "私立", "address": "[106]和平東路一段91號2樓及2樓之1、2樓之2", "telephone": "(02)23225491", "people": "99", "quasi-public": "無", "lng": 121.52570002783358, "lat": 25.027010000789076 }, "geometry": { "type": "Point", "coordinates": [ 121.525700027833579, 25.027010000789076 ] } },
{ "type": "Feature", "properties": { "name": "財團法人中華民國郵政職工福利委員會附設臺北市私立員工子女幼兒園", "district": "大安區", "type": "私立", "address": "[106]愛國東路210巷9號2樓", "telephone": "(02)23931261#3516", "people": "156", "quasi-public": "無", "lng": 121.52394997026954, "lat": 25.03101001262246 }, "geometry": { "type": "Point", "coordinates": [ 121.523949970269541, 25.03101001262246 ] } },
{ "type": "Feature", "properties": { "name": "臺北市私立吉事達康博喜幼兒園", "district": "大安區", "type": "私立", "address": "[106]臥龍街43巷5號1樓及7號1樓", "telephone": "(02)27381616", "people": "40", "quasi-public": "無", "lng": 121.54767227357591, "lat": 25.022531854773923 }, "geometry": { "type": "Point", "coordinates": [ 121.547672273575913, 25.022531854773923 ] } },
{ "type": "Feature", "properties": { "name": "臺北市私立華康幼兒園", "district": "大安區", "type": "私立", "address": "[106]金華街223之5號2樓及223之9號2樓", "telephone": "(02)23914431", "people": "31", "quasi-public": "無", "lng": 121.5292899969636, "lat": 25.029839982758205 }, "geometry": { "type": "Point", "coordinates": [ 121.529289996963598, 25.029839982758205 ] } },
{ "type": "Feature", "properties": { "name": "臺北市私立磊心蒙特梭利幼兒園", "district": "大安區", "type": "私立", "address": "[106]信義路四段99巷30.32號1樓", "telephone": "(02)27014947", "people": "40", "quasi-public": "無", "lng": 121.5469867559723, "lat": 25.034477276080388 }, "geometry": { "type": "Point", "coordinates": [ 121.546986755972299, 25.034477276080388 ] } },
{ "type": "Feature", "properties": { "name": "臺北市私立菁英種子幼兒園", "district": "大安區", "type": "私立", "address": "[106]濟南路3段11號1樓", "telephone": "(02)27315785", "people": "26", "quasi-public": "無", "lng": 121.53737673337925, "lat": 25.040227303568251 }, "geometry": { "type": "Point", "coordinates": [ 121.537376733379247, 25.040227303568251 ] } },
{ "type": "Feature", "properties": { "name": "臺北市私立樹屋幼兒園", "district": "大安區", "type": "私立", "address": "[106]樂利路11巷19號1樓及23號1樓", "telephone": "(02)23782200#28", "people": "60", "quasi-public": "無", "lng": 121.5519900347814, "lat": 25.028550007859508 }, "geometry": { "type": "Point", "coordinates": [ 121.551990034781397, 25.028550007859508 ] } },
{ "type": "Feature", "properties": { "name": "臺北市私立陽光小屋幼兒園", "district": "大安區", "type": "私立", "address": "[106]瑞安街208巷14弄24號1樓", "telephone": "(02)27070728", "people": "30", "quasi-public": "無", "lng": 121.53927971680616, "lat": 25.02843002091555 }, "geometry": { "type": "Point", "coordinates": [ 121.539279716806163, 25.02843002091555 ] } },
{ "type": "Feature", "properties": { "name": "臺北市私立小天心茜茜幼兒園", "district": "大安區", "type": "私立", "address": "[106]泰順街26巷39號1樓", "telephone": "(02)23637770", "people": "30", "quasi-public": "110-112 符合", "lng": 121.52987002466335, "lat": 25.025059992924824 }, "geometry": { "type": "Point", "coordinates": [ 121.529870024663353, 25.025059992924824 ] } },
{ "type": "Feature", "properties": { "name": "臺北市天堂愛職場互助教保服務中心", "district": "大安區", "type": "私立", "address": "[106]信義路四段137號二樓及二樓之1", "telephone": "(02)27019862", "people": "42", "quasi-public": "無", "lng": 121.54934001227343, "lat": 25.033440010172058 }, "geometry": { "type": "Point", "coordinates": [ 121.549340012273433, 25.033440010172058 ] } },
{ "type": "Feature", "properties": { "name": "國家科學及技術委員會職場互助教保服務中心（委託社團法人台灣公共托育協會辦理）", "district": "大安區", "type": "私立", "address": "[106]和平東路2段106號1樓", "telephone": "(02)27377485", "people": "50", "quasi-public": "無", "lng": 121.54196997244935, "lat": 25.024860000715066 }, "geometry": { "type": "Point", "coordinates": [ 121.541969972449351, 25.024860000715066 ] } },
{ "type": "Feature", "properties": { "name": "臺北市中華電信大安職場互助教保服務中心（委託社團法人台灣幼兒早期教育協會辦理）", "district": "大安區", "type": "私立", "address": "[106]信義路四段74巷8弄4號", "telephone": "(02)27030023", "people": "28", "quasi-public": "無", "lng": 121.54665998255211, "lat": 25.031939984779783 }, "geometry": { "type": "Point", "coordinates": [ 121.546659982552114, 25.031939984779783 ] } },
{ "type": "Feature", "properties": { "name": "臺北市私立蒙特梭利森林幼兒園", "district": "大安區", "type": "私立", "address": "[106]和平東路二段175巷37之1號", "telephone": "(02)27040700", "people": "34", "quasi-public": "無", "lng": 121.54192001630639, "lat": 25.026999984414786 }, "geometry": { "type": "Point", "coordinates": [ 121.541920016306392, 25.026999984414786 ] } },
{ "type": "Feature", "properties": { "name": "臺北市私立夏莉絲國際大安森林幼兒園", "district": "大安區", "type": "私立", "address": "[106]建國南路一段258巷18號", "telephone": "(02)27000885", "people": "30", "quasi-public": "無", "lng": 121.5363199829759, "lat": 25.03679000541419 }, "geometry": { "type": "Point", "coordinates": [ 121.536319982975897, 25.03679000541419 ] } },
{ "type": "Feature", "properties": { "name": "臺北市私立何嘉仁中華幼兒園", "district": "萬華區", "type": "私立", "address": "[108]中華路二段666-12、666-13、668、670號1樓", "telephone": "(02)23094679", "people": "92", "quasi-public": "無", "lng": 121.51136999088868, "lat": 25.024189993284736 }, "geometry": { "type": "Point", "coordinates": [ 121.511369990888682, 25.024189993284736 ] } },
{ "type": "Feature", "properties": { "name": "臺北市私立雪拉比幼兒園", "district": "萬華區", "type": "私立", "address": "[108]環河南路二段250巷1號2樓、252號2樓及254號2樓", "telephone": "(02)23065715", "people": "52", "quasi-public": "無", "lng": 121.49172893109643, "lat": 25.033278493581008 }, "geometry": { "type": "Point", "coordinates": [ 121.491728931096432, 25.033278493581008 ] } },
{ "type": "Feature", "properties": { "name": "臺北市私立盈虹幼兒園", "district": "萬華區", "type": "私立", "address": "[108]西園路二段207號2樓及2樓之1", "telephone": "(02)23325452", "people": "33", "quasi-public": "無", "lng": 121.49436000804155, "lat": 25.027229983837913 }, "geometry": { "type": "Point", "coordinates": [ 121.494360008041554, 25.027229983837913 ] } },
{ "type": "Feature", "properties": { "name": "臺北市私立寶興幼兒園", "district": "萬華區", "type": "私立", "address": "[108]寶興街228號1樓", "telephone": "(02)23375171", "people": "54", "quasi-public": "無", "lng": 121.49580999347188, "lat": 25.022050009585016 }, "geometry": { "type": "Point", "coordinates": [ 121.49580999347188, 25.022050009585016 ] } },
{ "type": "Feature", "properties": { "name": "臺北市私立青年幼兒園", "district": "萬華區", "type": "私立", "address": "[108]國興路90-7號1樓", "telephone": "(02)23370181", "people": "26", "quasi-public": "110-112 符合", "lng": 121.50635995972266, "lat": 25.026730003313503 }, "geometry": { "type": "Point", "coordinates": [ 121.506359959722658, 25.026730003313503 ] } },
{ "type": "Feature", "properties": { "name": "臺北市私立幼佳幼兒園", "district": "萬華區", "type": "私立", "address": "[108]雙園街18巷12號、西藏路484號、484-1號、486號1樓", "telephone": "(02)23026545", "people": "90", "quasi-public": "無", "lng": 121.49423563924474, "lat": 25.028935114057056 }, "geometry": { "type": "Point", "coordinates": [ 121.494235639244735, 25.028935114057056 ] } },
{ "type": "Feature", "properties": { "name": "北部台灣基督長老教會艋舺教會附設臺北市私立愛心幼兒園", "district": "萬華區", "type": "私立", "address": "[108]貴陽街二段94號1樓", "telephone": "(02)23314921#11", "people": "90", "quasi-public": "110-112 符合", "lng": 121.50332001107898, "lat": 25.039669985435751 }, "geometry": { "type": "Point", "coordinates": [ 121.503320011078983, 25.039669985435751 ] } },
{ "type": "Feature", "properties": { "name": "財團法人天主教會台北教區附設臺北市私立育仁幼兒園", "district": "萬華區", "type": "私立", "address": "[108]興寧街70號", "telephone": "(02)23040131", "people": "150", "quasi-public": "110-112 符合", "lng": 121.4995599731335, "lat": 25.032229998629646 }, "geometry": { "type": "Point", "coordinates": [ 121.499559973133501, 25.032229998629646 ] } },
{ "type": "Feature", "properties": { "name": "臺北市私立博愛幼兒園", "district": "萬華區", "type": "私立", "address": "[108]武成街28巷9弄2號", "telephone": "(02)23072749", "people": "120", "quasi-public": "110-112 符合", "lng": 121.49524999852071, "lat": 25.019030009870903 }, "geometry": { "type": "Point", "coordinates": [ 121.495249998520706, 25.019030009870903 ] } },
{ "type": "Feature", "properties": { "name": "臺北市私立娃娃果幼兒園", "district": "萬華區", "type": "私立", "address": "[108]艋舺大道184號2樓及186號1、2樓", "telephone": "(02)23069008", "people": "84", "quasi-public": "110-112 符合", "lng": 121.50020998972479, "lat": 25.032709988314991 }, "geometry": { "type": "Point", "coordinates": [ 121.500209989724794, 25.032709988314991 ] } },
{ "type": "Feature", "properties": { "name": "臺北市私立育光幼兒園", "district": "萬華區", "type": "私立", "address": "[108]德昌街185巷68號、70號1樓", "telephone": "(02)23015139", "people": "90", "quasi-public": "110-112 符合", "lng": 121.49304628306693, "lat": 25.022418543690264 }, "geometry": { "type": "Point", "coordinates": [ 121.493046283066931, 25.022418543690264 ] } },
{ "type": "Feature", "properties": { "name": "臺北市私立德明幼兒園", "district": "萬華區", "type": "私立", "address": "[108]萬大路449巷28弄3號1樓", "telephone": "(02)23073007", "people": "90", "quasi-public": "110-112 符合", "lng": 121.49926287214892, "lat": 25.019896964932343 }, "geometry": { "type": "Point", "coordinates": [ 121.499262872148918, 25.019896964932343 ] } },
{ "type": "Feature", "properties": { "name": "臺北市私立光仁國民小學附設幼兒園", "district": "萬華區", "type": "私立", "address": "[108]萬大路423巷28弄2號", "telephone": "(02)23032874#891", "people": "360", "quasi-public": "無", "lng": 121.49981997977005, "lat": 25.020859988881682 }, "geometry": { "type": "Point", "coordinates": [ 121.499819979770052, 25.020859988881682 ] } },
{ "type": "Feature", "properties": { "name": "臺北市私立英才幼兒園", "district": "萬華區", "type": "私立", "address": "[108]萬大路200號", "telephone": "(02)23072584", "people": "90", "quasi-public": "110-112 符合", "lng": 121.50030001136486, "lat": 25.027370003530464 }, "geometry": { "type": "Point", "coordinates": [ 121.500300011364857, 25.027370003530464 ] } },
{ "type": "Feature", "properties": { "name": "臺北市私立大理幼兒園", "district": "萬華區", "type": "私立", "address": "[108]雙園街67巷3弄3、4、5、7號1樓", "telephone": "(02)23044506", "people": "99", "quasi-public": "無", "lng": 121.494310656811, "lat": 25.030274035844375 }, "geometry": { "type": "Point", "coordinates": [ 121.494310656810995, 25.030274035844375 ] } },
{ "type": "Feature", "properties": { "name": "臺北市私立慈愛幼兒園", "district": "萬華區", "type": "私立", "address": "[108]寶興街140巷23號、27號1、2樓", "telephone": "(02)23078147", "people": "60", "quasi-public": "無", "lng": 121.49390990101686, "lat": 25.023987220163018 }, "geometry": { "type": "Point", "coordinates": [ 121.493909901016863, 25.023987220163018 ] } },
{ "type": "Feature", "properties": { "name": "臺北市私立德昌幼兒園", "district": "萬華區", "type": "私立", "address": "[108]德昌街166號2樓", "telephone": "(02)23395958", "people": "25", "quasi-public": "無", "lng": 121.4957700117937, "lat": 25.024029982753106 }, "geometry": { "type": "Point", "coordinates": [ 121.495770011793695, 25.024029982753106 ] } },
{ "type": "Feature", "properties": { "name": "臺北市私立聖保羅幼兒園", "district": "萬華區", "type": "私立", "address": "[108]長沙街2段52號1樓、2樓", "telephone": "(02)23753690", "people": "49", "quasi-public": "110-112 符合", "lng": 121.56355, "lat": 25.03737 }, "geometry": { "type": "Point", "coordinates": [ 121.56355, 25.03737 ] } },
{ "type": "Feature", "properties": { "name": "臺北市私立名人幼兒園", "district": "萬華區", "type": "私立", "address": "[108]西園路2段227之1號2樓", "telephone": "(02)23016998", "people": "29", "quasi-public": "110-112 符合", "lng": 121.49393001640863, "lat": 25.026869981096524 }, "geometry": { "type": "Point", "coordinates": [ 121.493930016408626, 25.026869981096524 ] } },
{ "type": "Feature", "properties": { "name": "臺北市私立歡樂童年幼兒園", "district": "萬華區", "type": "私立", "address": "[108]中華路二段428之4號1樓", "telephone": "(02)23018609", "people": "27", "quasi-public": "110-112 符合", "lng": 121.50620003301009, "lat": 25.027469999635343 }, "geometry": { "type": "Point", "coordinates": [ 121.506200033010089, 25.027469999635343 ] } },
{ "type": "Feature", "properties": { "name": "臺北市私立小樹苗華頓幼兒園", "district": "萬華區", "type": "私立", "address": "[108]青年路30巷1號、30巷1之2號、30巷1之3號1樓", "telephone": "(02)23375275", "people": "40", "quasi-public": "無", "lng": 121.5046264082472, "lat": 25.026294916020362 }, "geometry": { "type": "Point", "coordinates": [ 121.504626408247205, 25.026294916020362 ] } },
{ "type": "Feature", "properties": { "name": "財政部臺北國稅局職場互助教保服務中心（委託社團法人台北市教保人員協會辦理）", "district": "萬華區", "type": "私立", "address": "[108]中華路一段2號", "telephone": "(02)23883225", "people": "60", "quasi-public": "無", "lng": 121.5091900255108, "lat": 25.047839994098922 }, "geometry": { "type": "Point", "coordinates": [ 121.509190025510804, 25.047839994098922 ] } },
{ "type": "Feature", "properties": { "name": "國防部陸軍司令部精勤職場互助教保服務中心（委託財團法人海棠文教基金會辦理）", "district": "萬華區", "type": "私立", "address": "[108]青年路152巷34號", "telephone": "(02)23395284", "people": "50", "quasi-public": "無", "lng": 121.50095002795615, "lat": 25.020369982822032 }, "geometry": { "type": "Point", "coordinates": [ 121.500950027956151, 25.020369982822032 ] } },
{ "type": "Feature", "properties": { "name": "臺北市私立子畝蒙特梭利幼兒園", "district": "信義區", "type": "私立", "address": "[110]忠孝東路5段558號2樓", "telephone": "(02)27592360", "people": "39", "quasi-public": "112-112 符合", "lng": 121.58029999657549, "lat": 25.042109999359639 }, "geometry": { "type": "Point", "coordinates": [ 121.580299996575491, 25.042109999359639 ] } },
{ "type": "Feature", "properties": { "name": "臺北市私立傑生幼兒園", "district": "信義區", "type": "私立", "address": "[110]忠孝東路五段295巷6弄21.23.25號1樓", "telephone": "(02)27480759", "people": "40", "quasi-public": "無", "lng": 121.57354091367381, "lat": 25.041877443456031 }, "geometry": { "type": "Point", "coordinates": [ 121.57354091367381, 25.041877443456031 ] } },
{ "type": "Feature", "properties": { "name": "臺北市私立聖幼幼兒園", "district": "信義區", "type": "私立", "address": "[110]虎林街232巷54號1樓", "telephone": "(02)27599391", "people": "30", "quasi-public": "110-112 符合", "lng": 121.57606998531895, "lat": 25.036000011039903 }, "geometry": { "type": "Point", "coordinates": [ 121.576069985318952, 25.036000011039903 ] } },
{ "type": "Feature", "properties": { "name": "臺北市私立喬伊幼兒園", "district": "信義區", "type": "私立", "address": "[110]忠孝東路五段524巷3弄27號1樓", "telephone": "(02)23460084", "people": "28", "quasi-public": "110-112 符合", "lng": 121.58073996267314, "lat": 25.041409984715941 }, "geometry": { "type": "Point", "coordinates": [ 121.580739962673135, 25.041409984715941 ] } },
{ "type": "Feature", "properties": { "name": "臺北市私立信義蒙特梭利幼兒園", "district": "信義區", "type": "私立", "address": "[110]忠孝東路五段236巷45弄9號1、2樓及9之1號2樓", "telephone": "(02)27251155", "people": "99", "quasi-public": "無", "lng": 121.57353766665371, "lat": 25.03764811473232 }, "geometry": { "type": "Point", "coordinates": [ 121.573537666653706, 25.03764811473232 ] } },
{ "type": "Feature", "properties": { "name": "臺北市私立佑保幼兒園", "district": "信義區", "type": "私立", "address": "[110]忠孝東路五段490號1.2樓", "telephone": "(02)27594855", "people": "30", "quasi-public": "無", "lng": 121.57812003119761, "lat": 25.040769984498979 }, "geometry": { "type": "Point", "coordinates": [ 121.578120031197614, 25.040769984498979 ] } },
{ "type": "Feature", "properties": { "name": "臺北市私立微笑幼兒園", "district": "信義區", "type": "私立", "address": "[110]和平東路3段341巷12號1、2樓", "telephone": "(02)87323560", "people": "35", "quasi-public": "110-112 符合", "lng": 121.55882159600816, "lat": 25.021930687982607 }, "geometry": { "type": "Point", "coordinates": [ 121.558821596008158, 25.021930687982607 ] } },
{ "type": "Feature", "properties": { "name": "臺北市私立清心幼兒園", "district": "信義區", "type": "私立", "address": "[110]福德街137巷4.5號1樓", "telephone": "(02)27261705", "people": "40", "quasi-public": "110-112 符合", "lng": 121.58281004130038, "lat": 25.0371300173165 }, "geometry": { "type": "Point", "coordinates": [ 121.582810041300377, 25.0371300173165 ] } },
{ "type": "Feature", "properties": { "name": "臺北市私立達德幼兒園", "district": "信義區", "type": "私立", "address": "[110]莊敬路423巷2弄4號及6號1樓", "telephone": "(02)27295967", "people": "36", "quasi-public": "無", "lng": 121.56683002671542, "lat": 25.027480016009633 }, "geometry": { "type": "Point", "coordinates": [ 121.566830026715422, 25.027480016009633 ] } },
{ "type": "Feature", "properties": { "name": "財團法人中華文化社會福利事業基金會台北兒童福利中心附設臺北市私立實驗幼兒園", "district": "信義區", "type": "私立", "address": "[110]虎林街120巷270號1、 2樓，忠孝東路五段295巷8號1、2樓、275巷15號1、2、3樓", "telephone": "(02)27679264#501", "people": "930", "quasi-public": "無", "lng": 121.57247679043606, "lat": 25.041547285680331 }, "geometry": { "type": "Point", "coordinates": [ 121.572476790436056, 25.041547285680331 ] } },
{ "type": "Feature", "properties": { "name": "臺北市私立天琪幼兒園", "district": "信義區", "type": "私立", "address": "[110]吳興街600巷83弄16、18號1樓", "telephone": "(02)27233079", "people": "90", "quasi-public": "無", "lng": 121.57175003624138, "lat": 25.019130005975782 }, "geometry": { "type": "Point", "coordinates": [ 121.571750036241383, 25.019130005975782 ] } },
{ "type": "Feature", "properties": { "name": "臺北市私立友愛幼兒園", "district": "信義區", "type": "私立", "address": "[110]忠孝東路5段524巷5弄23號1樓", "telephone": "(02)27285918", "people": "40", "quasi-public": "112-112 符合", "lng": 121.5806500248521, "lat": 25.040920020565821 }, "geometry": { "type": "Point", "coordinates": [ 121.580650024852105, 25.040920020565821 ] } },
{ "type": "Feature", "properties": { "name": "臺北市私立六三幼兒園", "district": "信義區", "type": "私立", "address": "[110]信義路5段150巷351號1樓", "telephone": "(02)23454058", "people": "90", "quasi-public": "110-112 符合", "lng": 121.57014004027945, "lat": 25.026070012257463 }, "geometry": { "type": "Point", "coordinates": [ 121.570140040279455, 25.026070012257463 ] } },
{ "type": "Feature", "properties": { "name": "臺北市私立國泰幼兒園", "district": "信義區", "type": "私立", "address": "[110]永吉路278巷57弄16號1樓", "telephone": "(02)27617760", "people": "60", "quasi-public": "110-112 符合", "lng": 121.57471999599352, "lat": 25.043279987314378 }, "geometry": { "type": "Point", "coordinates": [ 121.574719995993519, 25.043279987314378 ] } },
{ "type": "Feature", "properties": { "name": "臺北市私立君格幼兒園", "district": "信義區", "type": "私立", "address": "[110]松隆路9巷21、23號1樓", "telephone": "(02)27614112", "people": "60", "quasi-public": "無", "lng": 121.56708441544968, "lat": 25.044396474880187 }, "geometry": { "type": "Point", "coordinates": [ 121.567084415449685, 25.044396474880187 ] } },
{ "type": "Feature", "properties": { "name": "臺北市私立寶兒寶幼兒園", "district": "信義區", "type": "私立", "address": "[110]光復南路419巷17號1樓", "telephone": "(02)23458112", "people": "60", "quasi-public": "110-112 符合", "lng": 121.56080675305736, "lat": 25.036517305584745 }, "geometry": { "type": "Point", "coordinates": [ 121.560806753057363, 25.036517305584745 ] } },
{ "type": "Feature", "properties": { "name": "臺北市私立全心幼兒園", "district": "信義區", "type": "私立", "address": "[110]虎林街40巷30號1樓", "telephone": "(02)27660046", "people": "28", "quasi-public": "無", "lng": 121.57501000984337, "lat": 25.047609994675781 }, "geometry": { "type": "Point", "coordinates": [ 121.575010009843368, 25.047609994675781 ] } },
{ "type": "Feature", "properties": { "name": "臺北市私立上群蒙特梭利忠孝幼兒園", "district": "信義區", "type": "私立", "address": "[110]忠孝東路5段207號1、2樓", "telephone": "(02)27693636", "people": "70", "quasi-public": "無", "lng": 121.57008002585269, "lat": 25.041239999719537 }, "geometry": { "type": "Point", "coordinates": [ 121.57008002585269, 25.041239999719537 ] } },
{ "type": "Feature", "properties": { "name": "臺北市私立慧光幼兒園", "district": "信義區", "type": "私立", "address": "[110]虎林街232巷66弄1號1樓及232巷68、72、74、76號1樓", "telephone": "(02)27279422", "people": "140", "quasi-public": "110-112 符合", "lng": 121.57554997204596, "lat": 25.035629991924225 }, "geometry": { "type": "Point", "coordinates": [ 121.575549972045962, 25.035629991924225 ] } },
{ "type": "Feature", "properties": { "name": "臺北市私立逸仙幼兒園", "district": "信義區", "type": "私立", "address": "[110]逸仙路42巷6號1樓", "telephone": "(02)27224144", "people": "38", "quasi-public": "無", "lng": 121.56210003493453, "lat": 25.040140000656308 }, "geometry": { "type": "Point", "coordinates": [ 121.562100034934531, 25.040140000656308 ] } },
{ "type": "Feature", "properties": { "name": "臺北市私立甲子園幼兒園", "district": "信義區", "type": "私立", "address": "[110]信安街161號1樓至2樓", "telephone": "(02)27358636", "people": "38", "quasi-public": "無", "lng": 121.55493996178495, "lat": 25.022490017592204 }, "geometry": { "type": "Point", "coordinates": [ 121.554939961784953, 25.022490017592204 ] } },
{ "type": "Feature", "properties": { "name": "臺北市私立宗周幼兒園", "district": "信義區", "type": "私立", "address": "[110]松山路393巷32號1樓及忠孝東路五段621巷4號1樓", "telephone": "(02)87852293", "people": "40", "quasi-public": "110-112 符合", "lng": 121.57883967086231, "lat": 25.04241015778307 }, "geometry": { "type": "Point", "coordinates": [ 121.578839670862308, 25.04241015778307 ] } },
{ "type": "Feature", "properties": { "name": "財團法人天主教會台北教區附設臺北市私立三德幼兒園", "district": "信義區", "type": "私立", "address": "[110]松仁路228巷15號1樓至2樓", "telephone": "(02)27221062#11", "people": "170", "quasi-public": "無", "lng": 121.5678299877643, "lat": 25.02487999155413 }, "geometry": { "type": "Point", "coordinates": [ 121.567829987764298, 25.02487999155413 ] } },
{ "type": "Feature", "properties": { "name": "財團法人台北市中華基督教青年會附設臺北市私立永吉幼兒園", "district": "信義區", "type": "私立", "address": "[110]永吉路500號", "telephone": "(02)2763-1261", "people": "90", "quasi-public": "無", "lng": 121.57993001936933, "lat": 25.045160006287119 }, "geometry": { "type": "Point", "coordinates": [ 121.579930019369328, 25.045160006287119 ] } },
{ "type": "Feature", "properties": { "name": "臺北市私立上群蒙特梭利信義幼兒園", "district": "信義區", "type": "私立", "address": "[110]忠孝東路5段217號", "telephone": "(02)27693636", "people": "75", "quasi-public": "無", "lng": 121.57026995977867, "lat": 25.04135001219872 }, "geometry": { "type": "Point", "coordinates": [ 121.57026995977867, 25.04135001219872 ] } },
{ "type": "Feature", "properties": { "name": "財政部財政資訊中心職場互助教保服務中心(委託社團法人新竹市教保人員協會辦理)", "district": "信義區", "type": "私立", "address": "[110]忠孝東路4段547號1樓", "telephone": "(02)27493301", "people": "40", "quasi-public": "無", "lng": 121.56214999107743, "lat": 25.041489989981756 }, "geometry": { "type": "Point", "coordinates": [ 121.562149991077433, 25.041489989981756 ] } },
{ "type": "Feature", "properties": { "name": "臺北市私立太和騰幼兒園", "district": "士林區", "type": "私立", "address": "[111]延平北路6段227號1至3樓", "telephone": "(02)28129958", "people": "97", "quasi-public": "無", "lng": 121.50510996650212, "lat": 25.089290014044053 }, "geometry": { "type": "Point", "coordinates": [ 121.505109966502118, 25.089290014044053 ] } },
{ "type": "Feature", "properties": { "name": "臺北市私立慈暉幼兒園", "district": "士林區", "type": "私立", "address": "[111]永平街46巷3弄7,9號1樓及9號2樓", "telephone": "(02)28113589", "people": "40", "quasi-public": "110-112 符合", "lng": 121.50585000473347, "lat": 25.091030013324243 }, "geometry": { "type": "Point", "coordinates": [ 121.505850004733475, 25.091030013324243 ] } },
{ "type": "Feature", "properties": { "name": "臺北市私立好來幼兒園", "district": "士林區", "type": "私立", "address": "[111]中山北路七段225之1號1.2樓", "telephone": "(02)28718696", "people": "120", "quasi-public": "無", "lng": 121.53284995888026, "lat": 25.12755998183394 }, "geometry": { "type": "Point", "coordinates": [ 121.532849958880263, 25.12755998183394 ] } },
{ "type": "Feature", "properties": { "name": "臺北市私立飛達幼兒園", "district": "士林區", "type": "私立", "address": "[111]延平北路六段210號1樓、2樓之1、2樓之2及212號1樓", "telephone": "(02)28113351", "people": "90", "quasi-public": "110-112 符合", "lng": 121.50489999982756, "lat": 25.089459999040443 }, "geometry": { "type": "Point", "coordinates": [ 121.504899999827558, 25.089459999040443 ] } },
{ "type": "Feature", "properties": { "name": "臺北市私立淘兒園幼兒園", "district": "士林區", "type": "私立", "address": "[111]承德路四段57號一樓,53號二樓,55號二樓,.57號二樓", "telephone": "(02)28861858", "people": "64", "quasi-public": "112-112 符合", "lng": 121.5231199942171, "lat": 25.081549997013781 }, "geometry": { "type": "Point", "coordinates": [ 121.523119994217097, 25.081549997013781 ] } },
{ "type": "Feature", "properties": { "name": "臺北市私立華邇街幼兒園", "district": "士林區", "type": "私立", "address": "[111]中山北路六段290巷7弄8號1,2樓", "telephone": "(02)28363379", "people": "70", "quasi-public": "110-112 符合", "lng": 121.52790925518525, "lat": 25.110086726365981 }, "geometry": { "type": "Point", "coordinates": [ 121.52790925518525, 25.110086726365981 ] } },
{ "type": "Feature", "properties": { "name": "財團法人林迺翁文教基金會附設臺北市私立天鵝堡幼兒園", "district": "士林區", "type": "私立", "address": "[111]至善路2段280之1號、280之1號2樓、280之1號3樓", "telephone": "(02)28411618", "people": "210", "quasi-public": "無", "lng": 121.55160999929143, "lat": 25.100849999627499 }, "geometry": { "type": "Point", "coordinates": [ 121.551609999291429, 25.100849999627499 ] } },
{ "type": "Feature", "properties": { "name": "臺北市私立多多種子幼兒園", "district": "士林區", "type": "私立", "address": "[111]延平北路五段245巷2.4號", "telephone": "(02)28122563", "people": "60", "quasi-public": "無", "lng": 121.5094500321473, "lat": 25.084650001993708 }, "geometry": { "type": "Point", "coordinates": [ 121.509450032147299, 25.084650001993708 ] } },
{ "type": "Feature", "properties": { "name": "臺北市私立忠義幼兒園", "district": "士林區", "type": "私立", "address": "[111]士東路54巷11、19、21號", "telephone": "(02)28310788", "people": "150", "quasi-public": "110-112 符合", "lng": 121.52821950119966, "lat": 25.111351243221609 }, "geometry": { "type": "Point", "coordinates": [ 121.528219501199658, 25.111351243221609 ] } },
{ "type": "Feature", "properties": { "name": "臺北市私立民華幼兒園", "district": "士林區", "type": "私立", "address": "[111]華齡街211號1、2、3樓", "telephone": "(02)28823000", "people": "360", "quasi-public": "111-112 符合", "lng": 121.51967997733487, "lat": 25.088320018299072 }, "geometry": { "type": "Point", "coordinates": [ 121.519679977334874, 25.088320018299072 ] } },
{ "type": "Feature", "properties": { "name": "臺北市私立十大幼兒園", "district": "士林區", "type": "私立", "address": "[111]天母東路92號1樓", "telephone": "(02)28749113", "people": "60", "quasi-public": "無", "lng": 121.53605997633935, "lat": 25.117980011328115 }, "geometry": { "type": "Point", "coordinates": [ 121.536059976339345, 25.117980011328115 ] } },
{ "type": "Feature", "properties": { "name": "臺北市私立幼心幼兒園", "district": "士林區", "type": "私立", "address": "[111]中正路335巷18號", "telephone": "(02)28815581", "people": "180", "quasi-public": "110-112 符合", "lng": 121.52289996925879, "lat": 25.093829988080003 }, "geometry": { "type": "Point", "coordinates": [ 121.522899969258788, 25.093829988080003 ] } },
{ "type": "Feature", "properties": { "name": "臺北市私立泰安幼兒園", "district": "士林區", "type": "私立", "address": "[111]中山北路五段八二九巷14.16號", "telephone": "(02)28314281", "people": "90", "quasi-public": "110-112 符合", "lng": 121.52509996738524, "lat": 25.101719999267587 }, "geometry": { "type": "Point", "coordinates": [ 121.525099967385245, 25.101719999267587 ] } },
{ "type": "Feature", "properties": { "name": "臺北市私立博仁幼兒園", "district": "士林區", "type": "私立", "address": "[111]中山北路六段405巷29、31號", "telephone": "(02)28723567", "people": "120", "quasi-public": "無", "lng": 121.52583151413165, "lat": 25.113865367995636 }, "geometry": { "type": "Point", "coordinates": [ 121.525831514131653, 25.113865367995636 ] } },
{ "type": "Feature", "properties": { "name": "臺北市私立育成幼兒園", "district": "士林區", "type": "私立", "address": "[111]承德路四段12巷10.12.14號1樓", "telephone": "(02)28858002", "people": "60", "quasi-public": "110-112 符合", "lng": 121.52137999493692, "lat": 25.080000015478575 }, "geometry": { "type": "Point", "coordinates": [ 121.521379994936922, 25.080000015478575 ] } },
{ "type": "Feature", "properties": { "name": "臺北市私立何嘉仁士林幼兒園", "district": "士林區", "type": "私立", "address": "[111]中正路116號1,2樓、118號1,2樓、118-1號2樓", "telephone": "(02)28327663", "people": "141", "quasi-public": "無", "lng": 121.58762, "lat": 24.982426195000073 }, "geometry": { "type": "Point", "coordinates": [ 121.58762, 24.982426195000073 ] } },
{ "type": "Feature", "properties": { "name": "臺北市私立天母蒙特梭利幼兒園", "district": "士林區", "type": "私立", "address": "[111]天母西路95巷21號1.2樓", "telephone": "(02)28728454", "people": "112", "quasi-public": "無", "lng": 121.52512000013382, "lat": 25.119989991709588 }, "geometry": { "type": "Point", "coordinates": [ 121.525120000133825, 25.119989991709588 ] } },
{ "type": "Feature", "properties": { "name": "臺北市私立社中幼兒園", "district": "士林區", "type": "私立", "address": "[111]社中街424號1,2樓", "telephone": "(02)28126797", "people": "62", "quasi-public": "110-112 符合", "lng": 121.50256999838285, "lat": 25.091930020177699 }, "geometry": { "type": "Point", "coordinates": [ 121.502569998382853, 25.091930020177699 ] } },
{ "type": "Feature", "properties": { "name": "臺北市私立捷森幼兒園", "district": "士林區", "type": "私立", "address": "[111]天玉街15號1~4樓", "telephone": "(02)28741177", "people": "150", "quasi-public": "無", "lng": 121.52682999220065, "lat": 25.119390015080285 }, "geometry": { "type": "Point", "coordinates": [ 121.526829992200646, 25.119390015080285 ] } },
{ "type": "Feature", "properties": { "name": "臺北市私立幼天才幼兒園", "district": "士林區", "type": "私立", "address": "[111]福港街107巷16、18、20號1樓", "telephone": "(02)28802380", "people": "40", "quasi-public": "110-112 符合", "lng": 121.51868013496184, "lat": 25.088262386408271 }, "geometry": { "type": "Point", "coordinates": [ 121.518680134961841, 25.088262386408271 ] } },
{ "type": "Feature", "properties": { "name": "臺北市私立心愛幼兒園", "district": "士林區", "type": "私立", "address": "[111]中山北路七段190巷104號1、2樓", "telephone": "(02)28739393", "people": "180", "quasi-public": "無", "lng": 121.53703001399384, "lat": 25.126209992508507 }, "geometry": { "type": "Point", "coordinates": [ 121.537030013993842, 25.126209992508507 ] } },
{ "type": "Feature", "properties": { "name": "臺北市私立有緣蒙特梭利幼兒園", "district": "士林區", "type": "私立", "address": "[111]忠誠路2段32巷11號1樓", "telephone": "(02)28320290", "people": "38", "quasi-public": "110-112 符合", "lng": 121.52939332090099, "lat": 25.109354895322767 }, "geometry": { "type": "Point", "coordinates": [ 121.529393320900994, 25.109354895322767 ] } },
{ "type": "Feature", "properties": { "name": "臺北市私立德行幼兒園", "district": "士林區", "type": "私立", "address": "[111]中山北路6段290巷48.50號", "telephone": "(02)28368002", "people": "90", "quasi-public": "無", "lng": 121.52731999826028, "lat": 25.108669980014056 }, "geometry": { "type": "Point", "coordinates": [ 121.527319998260282, 25.108669980014056 ] } },
{ "type": "Feature", "properties": { "name": "臺北市私立何嘉仁幼兒園", "district": "士林區", "type": "私立", "address": "[111]延平北路五段231巷1號", "telephone": "(02)28128097", "people": "120", "quasi-public": "無", "lng": 121.50942999939872, "lat": 25.084209993986505 }, "geometry": { "type": "Point", "coordinates": [ 121.509429999398719, 25.084209993986505 ] } },
{ "type": "Feature", "properties": { "name": "財團法人臺灣聖公會附設臺北市私立牧愛堂幼兒園", "district": "士林區", "type": "私立", "address": "[111]中正路509號", "telephone": "(02)28823460", "people": "270", "quasi-public": "無", "lng": 121.51754996809996, "lat": 25.091399990530405 }, "geometry": { "type": "Point", "coordinates": [ 121.517549968099956, 25.091399990530405 ] } },
{ "type": "Feature", "properties": { "name": "臺北市私立博如幼兒園", "district": "士林區", "type": "私立", "address": "[111]雙溪街18,20號1樓", "telephone": "(02)28339854", "people": "70", "quasi-public": "無", "lng": 121.53079999682063, "lat": 25.100899997679932 }, "geometry": { "type": "Point", "coordinates": [ 121.530799996820633, 25.100899997679932 ] } },
{ "type": "Feature", "properties": { "name": "臺北市私立博如日本幼兒園", "district": "士林區", "type": "私立", "address": "[111]克強路10巷9弄29及31號1樓", "telephone": "(02)28340473", "people": "40", "quasi-public": "無", "lng": 121.52302997257704, "lat": 25.10936002019298 }, "geometry": { "type": "Point", "coordinates": [ 121.523029972577035, 25.10936002019298 ] } },
{ "type": "Feature", "properties": { "name": "臺北市私立佳嬰幼兒園", "district": "士林區", "type": "私立", "address": "[111]大東路126號1樓", "telephone": "(02)28807575", "people": "29", "quasi-public": "110-112 符合", "lng": 121.52555996623147, "lat": 25.091679988005978 }, "geometry": { "type": "Point", "coordinates": [ 121.525559966231469, 25.091679988005978 ] } },
{ "type": "Feature", "properties": { "name": "臺北市私立弘明幼兒園", "district": "士林區", "type": "私立", "address": "[111]中山北路7段114巷11號", "telephone": "(02)28726200", "people": "99", "quasi-public": "110-112 符合", "lng": 121.53321926553417, "lat": 25.122092550211633 }, "geometry": { "type": "Point", "coordinates": [ 121.533219265534171, 25.122092550211633 ] } },
{ "type": "Feature", "properties": { "name": "臺北市私立求真幼兒園", "district": "士林區", "type": "私立", "address": "[111]通河東街一段136巷24.26號1樓", "telephone": "(02)28828069", "people": "37", "quasi-public": "110-112 符合", "lng": 121.51681175704844, "lat": 25.087187613189521 }, "geometry": { "type": "Point", "coordinates": [ 121.516811757048444, 25.087187613189521 ] } },
{ "type": "Feature", "properties": { "name": "臺北市私立翰諾幼兒園", "district": "士林區", "type": "私立", "address": "[111]德行東路61巷4號1、2樓", "telephone": "(02)28362424", "people": "40", "quasi-public": "無", "lng": 121.5267923703779, "lat": 25.107628421992619 }, "geometry": { "type": "Point", "coordinates": [ 121.526792370377905, 25.107628421992619 ] } },
{ "type": "Feature", "properties": { "name": "臺北市私立浩恩幼兒園", "district": "士林區", "type": "私立", "address": "[111]忠義街91巷17.19號1樓", "telephone": "(02)28359964", "people": "40", "quasi-public": "無", "lng": 121.53322999437023, "lat": 25.106249998838763 }, "geometry": { "type": "Point", "coordinates": [ 121.533229994370231, 25.106249998838763 ] } },
{ "type": "Feature", "properties": { "name": "臺北市私立華育幼兒園", "district": "士林區", "type": "私立", "address": "[111]東山路135號1樓", "telephone": "(02)28364687", "people": "116", "quasi-public": "112-112 符合", "lng": 121.53985002149818, "lat": 25.112220009375463 }, "geometry": { "type": "Point", "coordinates": [ 121.539850021498182, 25.112220009375463 ] } },
{ "type": "Feature", "properties": { "name": "臺北市私立育強幼兒園", "district": "士林區", "type": "私立", "address": "[111]社正路45巷12號1、2樓", "telephone": "(02)28128829", "people": "90", "quasi-public": "110-112 符合", "lng": 121.50960168285951, "lat": 25.090438531684288 }, "geometry": { "type": "Point", "coordinates": [ 121.509601682859511, 25.090438531684288 ] } },
{ "type": "Feature", "properties": { "name": "臺北市私立星莆幼兒園", "district": "士林區", "type": "私立", "address": "[111]社中街289、291號1樓", "telephone": "(02)28126386", "people": "40", "quasi-public": "110-112 符合", "lng": 121.50589685491433, "lat": 25.092045549758481 }, "geometry": { "type": "Point", "coordinates": [ 121.505896854914326, 25.092045549758481 ] } },
{ "type": "Feature", "properties": { "name": "臺北市私立沐恩蒙特梭利幼兒園", "district": "士林區", "type": "私立", "address": "[111]天母東路69巷11之5號1樓", "telephone": "(02)28765636", "people": "33", "quasi-public": "無", "lng": 121.53417999927615, "lat": 25.118830020129138 }, "geometry": { "type": "Point", "coordinates": [ 121.534179999276148, 25.118830020129138 ] } },
{ "type": "Feature", "properties": { "name": "臺北市私立敦品幼兒園", "district": "士林區", "type": "私立", "address": "[111]忠誠路一段173巷13號1、2樓", "telephone": "(02)28366464", "people": "39", "quasi-public": "110-112 符合", "lng": 121.53266611161648, "lat": 25.108628285638002 }, "geometry": { "type": "Point", "coordinates": [ 121.532666111616479, 25.108628285638002 ] } },
{ "type": "Feature", "properties": { "name": "臺北市私立孩子國幼兒園", "district": "士林區", "type": "私立", "address": "[111]承德路四段185號1、2樓、2樓之1及187號2樓、2樓之1", "telephone": "(02)28881541", "people": "99", "quasi-public": "110-112 符合", "lng": 121.52242002148296, "lat": 25.087880010291883 }, "geometry": { "type": "Point", "coordinates": [ 121.522420021482958, 25.087880010291883 ] } },
{ "type": "Feature", "properties": { "name": "臺北市私立種籽幼兒園", "district": "士林區", "type": "私立", "address": "[111]中山北路六段290巷11弄3號1樓", "telephone": "(02)28315266", "people": "53", "quasi-public": "無", "lng": 121.52707542478369, "lat": 25.10965364163523 }, "geometry": { "type": "Point", "coordinates": [ 121.527075424783689, 25.10965364163523 ] } },
{ "type": "Feature", "properties": { "name": "臺北市私立怡寶幼兒園", "district": "士林區", "type": "私立", "address": "[111]中山北路六段2巷33號1樓", "telephone": "(02)28364720", "people": "28", "quasi-public": "110-112 符合", "lng": 121.5275599721482, "lat": 25.103470014922081 }, "geometry": { "type": "Point", "coordinates": [ 121.527559972148197, 25.103470014922081 ] } },
{ "type": "Feature", "properties": { "name": "臺北市私立怡寶資優幼兒園", "district": "士林區", "type": "私立", "address": "[111]中山北路六段2巷39號1、2樓", "telephone": "(02)28364720", "people": "40", "quasi-public": "110-112 符合", "lng": 121.52780002985514, "lat": 25.103559994652656 }, "geometry": { "type": "Point", "coordinates": [ 121.527800029855143, 25.103559994652656 ] } },
{ "type": "Feature", "properties": { "name": "臺北市私立卡兒堡國際幼兒園", "district": "士林區", "type": "私立", "address": "[111]中山北路七段224號1、2樓及224之1號1、2樓", "telephone": "(02)28730225", "people": "150", "quasi-public": "無", "lng": 121.53343996104479, "lat": 25.1268999907779 }, "geometry": { "type": "Point", "coordinates": [ 121.533439961044792, 25.1268999907779 ] } },
{ "type": "Feature", "properties": { "name": "臺北市私立幼安幼兒園", "district": "士林區", "type": "私立", "address": "[111]社中街231巷27號1樓", "telephone": "(02)88115787", "people": "27", "quasi-public": "110-112 符合", "lng": 121.50749000790876, "lat": 25.090429994785424 }, "geometry": { "type": "Point", "coordinates": [ 121.507490007908757, 25.090429994785424 ] } },
{ "type": "Feature", "properties": { "name": "臺北市私立奧爾仕幼兒園", "district": "士林區", "type": "私立", "address": "[111]至善路二段1之1號1、2樓", "telephone": "(02)28807531", "people": "150", "quasi-public": "無", "lng": 121.54366780325519, "lat": 25.097262640761176 }, "geometry": { "type": "Point", "coordinates": [ 121.54366780325519, 25.097262640761176 ] } },
{ "type": "Feature", "properties": { "name": "臺北市私立凱斯幼兒園", "district": "士林區", "type": "私立", "address": "[111]承德路四段179巷7號及7之1號1樓", "telephone": "(02)88611866", "people": "99", "quasi-public": "無", "lng": 121.52331001196211, "lat": 25.087889984756657 }, "geometry": { "type": "Point", "coordinates": [ 121.52331001196211, 25.087889984756657 ] } },
{ "type": "Feature", "properties": { "name": "臺北市私立瑞比特幼兒園", "district": "士林區", "type": "私立", "address": "[111]社子街63巷8號1樓", "telephone": "(02)88111398", "people": "21", "quasi-public": "110-112 符合", "lng": 121.5068183612308, "lat": 25.089167741785442 }, "geometry": { "type": "Point", "coordinates": [ 121.506818361230799, 25.089167741785442 ] } },
{ "type": "Feature", "properties": { "name": "臺北市私立欣光幼兒園", "district": "士林區", "type": "私立", "address": "[111]福港街259巷4號1樓至2樓及6號1樓", "telephone": "(02)28822302", "people": "120", "quasi-public": "110-112 符合", "lng": 121.51936469190561, "lat": 25.084135343385825 }, "geometry": { "type": "Point", "coordinates": [ 121.519364691905608, 25.084135343385825 ] } },
{ "type": "Feature", "properties": { "name": "臺北市私立師達幼兒園", "district": "士林區", "type": "私立", "address": "[111]士東路91巷26弄12號1樓至2樓", "telephone": "(02)28718869", "people": "36", "quasi-public": "無", "lng": 121.53006352695427, "lat": 25.113314210421894 }, "geometry": { "type": "Point", "coordinates": [ 121.530063526954265, 25.113314210421894 ] } },
{ "type": "Feature", "properties": { "name": "臺北市私立熊寶貝幼兒園", "district": "士林區", "type": "私立", "address": "[111]士東路46巷26號1樓", "telephone": "(02)28363868", "people": "165", "quasi-public": "無", "lng": 121.52747003432711, "lat": 25.110649995091677 }, "geometry": { "type": "Point", "coordinates": [ 121.527470034327109, 25.110649995091677 ] } },
{ "type": "Feature", "properties": { "name": "臺北市私立精采童年幼兒園", "district": "士林區", "type": "私立", "address": "[111]天母北路42之2號1、2樓及天母北路42之1號2樓之1", "telephone": "(02)28717230", "people": "115", "quasi-public": "無", "lng": 121.5264399822459, "lat": 25.120410008877712 }, "geometry": { "type": "Point", "coordinates": [ 121.526439982245904, 25.120410008877712 ] } },
{ "type": "Feature", "properties": { "name": "臺北市私立太和蒙特梭利幼兒園", "district": "士林區", "type": "私立", "address": "[111]中山北路六段290巷7弄7號1樓", "telephone": "(02)28366268", "people": "60", "quasi-public": "無", "lng": 121.52790925518525, "lat": 25.110086726365981 }, "geometry": { "type": "Point", "coordinates": [ 121.52790925518525, 25.110086726365981 ] } },
{ "type": "Feature", "properties": { "name": "臺北市私立道思幼兒園", "district": "士林區", "type": "私立", "address": "[111]天母北路61號1樓、61之1號1樓及61之1號2樓", "telephone": "(02)28731515", "people": "100", "quasi-public": "無", "lng": 121.52708002437237, "lat": 25.121330006570247 }, "geometry": { "type": "Point", "coordinates": [ 121.527080024372367, 25.121330006570247 ] } },
{ "type": "Feature", "properties": { "name": "臺北市私立微笑音符幼兒園", "district": "士林區", "type": "私立", "address": "[111]至誠路1段148號1樓及2樓", "telephone": "(02)88666629", "people": "29", "quasi-public": "無", "lng": 121.53411001038461, "lat": 25.10150001621875 }, "geometry": { "type": "Point", "coordinates": [ 121.534110010384609, 25.10150001621875 ] } },
{ "type": "Feature", "properties": { "name": "臺灣士林地方檢察署職場互助教保服務中心（委託社團法人中華音樂舞蹈暨表演藝術教育協會辦理）", "district": "士林區", "type": "私立", "address": "[111]士東路190號3樓", "telephone": "(02)28313232", "people": "20", "quasi-public": "無", "lng": 121.53290997330703, "lat": 25.111740019690117 }, "geometry": { "type": "Point", "coordinates": [ 121.532909973307028, 25.111740019690117 ] } },
{ "type": "Feature", "properties": { "name": "臺北市多元教育職場互助教保服務中心", "district": "士林區", "type": "私立", "address": "[111]天母北路61號3樓、61之1號3樓", "telephone": "0926046343", "people": "57", "quasi-public": "無", "lng": 121.52683996666542, "lat": 25.121180012412921 }, "geometry": { "type": "Point", "coordinates": [ 121.52683996666542, 25.121180012412921 ] } },
{ "type": "Feature", "properties": { "name": "臺北市太和職場互助教保服務中心", "district": "士林區", "type": "私立", "address": "[111]中山北路六段290巷25號", "telephone": "0921995129", "people": "53", "quasi-public": "無", "lng": 121.52624009477871, "lat": 25.109567160329235 }, "geometry": { "type": "Point", "coordinates": [ 121.526240094778714, 25.109567160329235 ] } },
{ "type": "Feature", "properties": { "name": "臺北市私立心幼文幼兒園", "district": "北投區", "type": "私立", "address": "[112]實踐街54號", "telephone": "(02)28286318", "people": "90", "quasi-public": "無", "lng": 121.50939999218537, "lat": 25.115160003823775 }, "geometry": { "type": "Point", "coordinates": [ 121.509399992185365, 25.115160003823775 ] } },
{ "type": "Feature", "properties": { "name": "臺北市私立米蘿幼兒園", "district": "北投區", "type": "私立", "address": "[112]文化三路12號1樓", "telephone": "(02)28967027", "people": "22", "quasi-public": "無", "lng": 121.49778996663997, "lat": 25.13751001336496 }, "geometry": { "type": "Point", "coordinates": [ 121.497789966639971, 25.13751001336496 ] } },
{ "type": "Feature", "properties": { "name": "財團法人天主教會台北教區附設臺北市私立達義幼兒園", "district": "北投區", "type": "私立", "address": "[112]致遠一路2段40巷11號1、2、3樓", "telephone": "(02)28270668", "people": "180", "quasi-public": "無", "lng": 121.51506175108382, "lat": 25.11232353868111 }, "geometry": { "type": "Point", "coordinates": [ 121.51506175108382, 25.11232353868111 ] } },
{ "type": "Feature", "properties": { "name": "財團法人臺灣基督長老教會雙連教會附設臺北市私立雙連幼兒園", "district": "北投區", "type": "私立", "address": "[112]承德路7段221號1、2、3樓", "telephone": "(02)28228444", "people": "1200", "quasi-public": "無", "lng": 121.5052900097823, "lat": 25.11509001493225 }, "geometry": { "type": "Point", "coordinates": [ 121.5052900097823, 25.11509001493225 ] } },
{ "type": "Feature", "properties": { "name": "臺北市私立佳人幼兒園", "district": "北投區", "type": "私立", "address": "[112]實踐街49巷25號1、2樓", "telephone": "(02)28225958", "people": "63", "quasi-public": "無", "lng": 121.50925003993757, "lat": 25.116839988677228 }, "geometry": { "type": "Point", "coordinates": [ 121.509250039937569, 25.116839988677228 ] } },
{ "type": "Feature", "properties": { "name": "臺北市私立石牌旭東幼兒園", "district": "北投區", "type": "私立", "address": "[112]實踐街82巷14號及16號1樓", "telephone": "(02)28272210", "people": "53", "quasi-public": "110-112 符合", "lng": 121.51068996708409, "lat": 25.114730012190861 }, "geometry": { "type": "Point", "coordinates": [ 121.51068996708409, 25.114730012190861 ] } },
{ "type": "Feature", "properties": { "name": "臺北市私立新茗幼兒園", "district": "北投區", "type": "私立", "address": "[112]立農街二段257之1號1樓", "telephone": "(02)28216602", "people": "20", "quasi-public": "無", "lng": 121.51441002335139, "lat": 25.118900009020649 }, "geometry": { "type": "Point", "coordinates": [ 121.514410023351388, 25.118900009020649 ] } },
{ "type": "Feature", "properties": { "name": "臺北市私立采郁蒙特梭利幼兒園", "district": "北投區", "type": "私立", "address": "[112]中央北路四段577巷27弄1號1樓", "telephone": "(02)28978840", "people": "26", "quasi-public": "無", "lng": 121.46787000888395, "lat": 25.126940014365573 }, "geometry": { "type": "Point", "coordinates": [ 121.467870008883949, 25.126940014365573 ] } },
{ "type": "Feature", "properties": { "name": "臺北市私立丹佛幼兒園", "district": "北投區", "type": "私立", "address": "[112]石牌路二段358之1號及358之2號1、2樓", "telephone": "(02)28721955", "people": "94", "quasi-public": "無", "lng": 121.52531999234355, "lat": 25.123269998060195 }, "geometry": { "type": "Point", "coordinates": [ 121.525319992343555, 25.123269998060195 ] } },
{ "type": "Feature", "properties": { "name": "臺北市私立何嘉仁北投幼兒園", "district": "北投區", "type": "私立", "address": "[112]中央北路二段335之2號1、2樓", "telephone": "(02)28943222", "people": "159", "quasi-public": "無", "lng": 121.48894001799118, "lat": 25.138319998578311 }, "geometry": { "type": "Point", "coordinates": [ 121.488940017991183, 25.138319998578311 ] } },
{ "type": "Feature", "properties": { "name": "臺北市私立發現蒙特梭利幼兒園", "district": "北投區", "type": "私立", "address": "[112]文林北路80巷90弄41號1、2樓", "telephone": "(02)28232092", "people": "42", "quasi-public": "無", "lng": 121.52033996839094, "lat": 25.106319987730274 }, "geometry": { "type": "Point", "coordinates": [ 121.520339968390942, 25.106319987730274 ] } },
{ "type": "Feature", "properties": { "name": "臺北市私立凱薩琳幼兒園", "district": "北投區", "type": "私立", "address": "[112]公館路279巷2號1、2樓", "telephone": "(02)28916098", "people": "51", "quasi-public": "無", "lng": 121.50729001569903, "lat": 25.124649994599011 }, "geometry": { "type": "Point", "coordinates": [ 121.507290015699027, 25.124649994599011 ] } },
{ "type": "Feature", "properties": { "name": "臺北市私立卡蕾兒幼兒園", "district": "北投區", "type": "私立", "address": "[112]文化三路14號1樓", "telephone": "(02)28926957", "people": "21", "quasi-public": "110-112 符合", "lng": 121.49906888498633, "lat": 25.140550845160458 }, "geometry": { "type": "Point", "coordinates": [ 121.499068884986329, 25.140550845160458 ] } },
{ "type": "Feature", "properties": { "name": "臺北市私立藍天幼兒園", "district": "北投區", "type": "私立", "address": "[112]中和街392號1、2樓", "telephone": "(02)28963620", "people": "32", "quasi-public": "110-112 符合", "lng": 121.49832003819677, "lat": 25.143249982569017 }, "geometry": { "type": "Point", "coordinates": [ 121.498320038196766, 25.143249982569017 ] } },
{ "type": "Feature", "properties": { "name": "臺北市私立聖德幼兒園", "district": "北投區", "type": "私立", "address": "[112]洲美街271號1樓", "telephone": "(02)28343465", "people": "174", "quasi-public": "110-112 符合", "lng": 121.49859001929804, "lat": 25.109549996028449 }, "geometry": { "type": "Point", "coordinates": [ 121.498590019298035, 25.109549996028449 ] } },
{ "type": "Feature", "properties": { "name": "臺北市私立一德幼兒園", "district": "北投區", "type": "私立", "address": "[112]明德路136巷9號1樓", "telephone": "(02)28215755", "people": "120", "quasi-public": "110-112 符合", "lng": 121.52153675454686, "lat": 25.109640987324646 }, "geometry": { "type": "Point", "coordinates": [ 121.521536754546858, 25.109640987324646 ] } },
{ "type": "Feature", "properties": { "name": "臺北市私立培爾幼兒園", "district": "北投區", "type": "私立", "address": "[112]大屯路31巷15號及91巷15號", "telephone": "(02)28946256", "people": "150", "quasi-public": "110-112 符合", "lng": 121.50069999578443, "lat": 25.14437001438084 }, "geometry": { "type": "Point", "coordinates": [ 121.50069999578443, 25.14437001438084 ] } },
{ "type": "Feature", "properties": { "name": "臺北市私立旭東幼兒園", "district": "北投區", "type": "私立", "address": "[112]中和街446巷56號", "telephone": "(02)28913311", "people": "120", "quasi-public": "110-112 符合", "lng": 121.49681003833973, "lat": 25.147050002192643 }, "geometry": { "type": "Point", "coordinates": [ 121.496810038339731, 25.147050002192643 ] } },
{ "type": "Feature", "properties": { "name": "臺北市私立新天地幼兒園", "district": "北投區", "type": "私立", "address": "[112]中央北路4段32號1-4樓", "telephone": "(02)28960707", "people": "258", "quasi-public": "無", "lng": 121.47282002562321, "lat": 25.130739992079668 }, "geometry": { "type": "Point", "coordinates": [ 121.472820025623207, 25.130739992079668 ] } },
{ "type": "Feature", "properties": { "name": "臺北市私立橘子蒙特梭利幼兒園", "district": "北投區", "type": "私立", "address": "[112]知行路292巷6、8號1樓", "telephone": "(02)28584990", "people": "90", "quasi-public": "無", "lng": 121.46910534909534, "lat": 25.121666308731079 }, "geometry": { "type": "Point", "coordinates": [ 121.469105349095344, 25.121666308731079 ] } },
{ "type": "Feature", "properties": { "name": "臺北市私立皇家幼兒園", "district": "北投區", "type": "私立", "address": "[112]榮華二路9號1樓", "telephone": "(02)28220869", "people": "60", "quasi-public": "無", "lng": 121.52406999912301, "lat": 25.113190005120444 }, "geometry": { "type": "Point", "coordinates": [ 121.524069999123014, 25.113190005120444 ] } },
{ "type": "Feature", "properties": { "name": "臺北市私立育奇幼兒園", "district": "北投區", "type": "私立", "address": "[112]大同街200巷1號1樓", "telephone": "(02)28911899", "people": "30", "quasi-public": "無", "lng": 121.49944002809906, "lat": 25.137770020001454 }, "geometry": { "type": "Point", "coordinates": [ 121.499440028099059, 25.137770020001454 ] } },
{ "type": "Feature", "properties": { "name": "臺北市私立艾法貝納幼兒園", "district": "北投區", "type": "私立", "address": "[112]行義路10巷2號2樓之1", "telephone": "(02)28769011", "people": "70", "quasi-public": "無", "lng": 121.52622732045839, "lat": 25.124609026543478 }, "geometry": { "type": "Point", "coordinates": [ 121.526227320458389, 25.124609026543478 ] } },
{ "type": "Feature", "properties": { "name": "臺北市私立奎山中學附設幼兒園", "district": "北投區", "type": "私立", "address": "[112]明德路200號", "telephone": "(02)28212009#11", "people": "90", "quasi-public": "無", "lng": 121.52206001874157, "lat": 25.112960005697303 }, "geometry": { "type": "Point", "coordinates": [ 121.52206001874157, 25.112960005697303 ] } },
{ "type": "Feature", "properties": { "name": "臺北市私立桃樂絲幼兒園", "district": "北投區", "type": "私立", "address": "[112]民族街12號1、2樓", "telephone": "(02)28930381", "people": "23", "quasi-public": "112-112 符合", "lng": 121.50645171624498, "lat": 25.133857570454829 }, "geometry": { "type": "Point", "coordinates": [ 121.506451716244982, 25.133857570454829 ] } },
{ "type": "Feature", "properties": { "name": "臺北市私立成美蒙特梭利幼兒園", "district": "北投區", "type": "私立", "address": "[112]裕民六路114巷36弄5號1樓及7號1樓", "telephone": "(02)28218915", "people": "40", "quasi-public": "無", "lng": 121.51873690020317, "lat": 25.113793842191171 }, "geometry": { "type": "Point", "coordinates": [ 121.518736900203166, 25.113793842191171 ] } },
{ "type": "Feature", "properties": { "name": "臺北市私立晴晴幼兒園", "district": "北投區", "type": "私立", "address": "[112]致遠一路一段104巷19號1、2樓", "telephone": "(02)28239652", "people": "30", "quasi-public": "無", "lng": 121.51586000878171, "lat": 25.109959996822269 }, "geometry": { "type": "Point", "coordinates": [ 121.515860008781715, 25.109959996822269 ] } },
{ "type": "Feature", "properties": { "name": "臺北市私立德美蒙特梭利幼兒園", "district": "北投區", "type": "私立", "address": "[112]東華街二段92之2及92之3號1樓", "telephone": "(02)28205120", "people": "27", "quasi-public": "無", "lng": 121.51352003287224, "lat": 25.117930013275668 }, "geometry": { "type": "Point", "coordinates": [ 121.513520032872236, 25.117930013275668 ] } },
{ "type": "Feature", "properties": { "name": "臺北市私立心美蒙特梭利幼兒園", "district": "北投區", "type": "私立", "address": "[112]東華街二段92號及92之1號1樓", "telephone": "(02)28205120", "people": "36", "quasi-public": "無", "lng": 121.51352003287224, "lat": 25.117930013275668 }, "geometry": { "type": "Point", "coordinates": [ 121.513520032872236, 25.117930013275668 ] } },
{ "type": "Feature", "properties": { "name": "臺北市私立豐年幼兒園", "district": "北投區", "type": "私立", "address": "[112]中央北路二段95巷1弄40號及42號1樓", "telephone": "(02)28925688", "people": "33", "quasi-public": "無", "lng": 121.49647995899267, "lat": 25.135699983283743 }, "geometry": { "type": "Point", "coordinates": [ 121.496479958992666, 25.135699983283743 ] } },
{ "type": "Feature", "properties": { "name": "臺北市私立北投青青幼兒園", "district": "北投區", "type": "私立", "address": "[112]溫泉路73巷5號1樓", "telephone": "(02)28965006", "people": "30", "quasi-public": "110-112 符合", "lng": 121.50572997588, "lat": 25.135809995762912 }, "geometry": { "type": "Point", "coordinates": [ 121.505729975880001, 25.135809995762912 ] } },
{ "type": "Feature", "properties": { "name": "臺北市私立超級寶貝幼兒園", "district": "北投區", "type": "私立", "address": "[112]文林北路80巷38弄10號1樓", "telephone": "(02)28231799", "people": "30", "quasi-public": "110-112 符合", "lng": 121.51911697857446, "lat": 25.105591114076091 }, "geometry": { "type": "Point", "coordinates": [ 121.519116978574459, 25.105591114076091 ] } },
{ "type": "Feature", "properties": { "name": "臺北市私立潘蜜拉幼兒園", "district": "北投區", "type": "私立", "address": "[112]大屯路21巷21號1樓", "telephone": "(02)28921534", "people": "90", "quasi-public": "110-112 符合", "lng": 121.49978997255664, "lat": 25.143780012216311 }, "geometry": { "type": "Point", "coordinates": [ 121.499789972556641, 25.143780012216311 ] } },
{ "type": "Feature", "properties": { "name": "臺北市私立巨登堡幼兒園", "district": "北投區", "type": "私立", "address": "[112]公舘路77號1樓", "telephone": "(02)28939226", "people": "34", "quasi-public": "無", "lng": 121.50421997602297, "lat": 25.131909980034408 }, "geometry": { "type": "Point", "coordinates": [ 121.504219976022966, 25.131909980034408 ] } },
{ "type": "Feature", "properties": { "name": "臺北市私立樂家幼兒園", "district": "北投區", "type": "私立", "address": "[112]實踐街6巷3弄11號1樓", "telephone": "(02)28288788", "people": "29", "quasi-public": "110-112 符合", "lng": 121.50884154269636, "lat": 25.114872170104395 }, "geometry": { "type": "Point", "coordinates": [ 121.508841542696359, 25.114872170104395 ] } },
{ "type": "Feature", "properties": { "name": "臺北榮民總醫院附設臺北市私立榮光幼兒園", "district": "北投區", "type": "私立", "address": "[112]石牌路二段201號1樓至3樓", "telephone": "(02)28757465", "people": "99", "quasi-public": "無", "lng": 121.52144000936369, "lat": 25.12069998081806 }, "geometry": { "type": "Point", "coordinates": [ 121.521440009363687, 25.12069998081806 ] } },
{ "type": "Feature", "properties": { "name": "臺北市私立道生幼兒園", "district": "北投區", "type": "私立", "address": "[112]中央北路三段188號1、2、3樓", "telephone": "(02)28922691", "people": "270", "quasi-public": "無", "lng": 121.48143000038408, "lat": 25.136849980399404 }, "geometry": { "type": "Point", "coordinates": [ 121.48143000038408, 25.136849980399404 ] } },
{ "type": "Feature", "properties": { "name": "臺北市私立薇閣國民小學附設幼兒園", "district": "北投區", "type": "私立", "address": "[112]珠海路50號1樓至2樓", "telephone": "(02)28911066", "people": "600", "quasi-public": "無", "lng": 121.50456002983475, "lat": 25.139949985379332 }, "geometry": { "type": "Point", "coordinates": [ 121.504560029834749, 25.139949985379332 ] } },
{ "type": "Feature", "properties": { "name": "臺北市私立城市國際幼兒園", "district": "北投區", "type": "私立", "address": "[112]學園路2號2樓", "telephone": "(02)2893-2155", "people": "131", "quasi-public": "無", "lng": 121.47181998075536, "lat": 25.134299995905863 }, "geometry": { "type": "Point", "coordinates": [ 121.471819980755356, 25.134299995905863 ] } },
{ "type": "Feature", "properties": { "name": "臺北市私立國際蒙特梭利北投幼兒園", "district": "北投區", "type": "私立", "address": "[112]光明路226-1號", "telephone": "(02)28949605", "people": "29", "quasi-public": "無", "lng": 121.50553995813499, "lat": 25.135970006294528 }, "geometry": { "type": "Point", "coordinates": [ 121.505539958134989, 25.135970006294528 ] } },
{ "type": "Feature", "properties": { "name": "臺北市私立愛德恩幼兒園", "district": "北投區", "type": "私立", "address": "[112]石牌路二段303號", "telephone": "(02)28755589", "people": "50", "quasi-public": "無", "lng": 121.5228100314377, "lat": 25.121440019049416 }, "geometry": { "type": "Point", "coordinates": [ 121.5228100314377, 25.121440019049416 ] } },
{ "type": "Feature", "properties": { "name": "臺北市私立石牌微笑音符幼兒園", "district": "北投區", "type": "私立", "address": "[112]石牌路二段348巷8號", "telephone": "(02)28728891", "people": "30", "quasi-public": "無", "lng": 121.52492998238881, "lat": 25.122649988682312 }, "geometry": { "type": "Point", "coordinates": [ 121.524929982388812, 25.122649988682312 ] } },
{ "type": "Feature", "properties": { "name": "國防部軍備局慈光五村職場互助教保服務中心(委託社團法人臺北市教保托育協會辦理)", "district": "北投區", "type": "私立", "address": "[112]文林北路10號1樓", "telephone": "(02)28238830", "people": "20", "quasi-public": "無", "lng": 121.51933003287729, "lat": 25.104310007348801 }, "geometry": { "type": "Point", "coordinates": [ 121.519330032877292, 25.104310007348801 ] } },
{ "type": "Feature", "properties": { "name": "臺北市中華電信北投職場互助教保服務中心（委託社團法人台灣幼兒早期教育協會辦理）", "district": "北投區", "type": "私立", "address": "[112]光明路176號3、4樓", "telephone": "(02)28910721", "people": "50", "quasi-public": "無", "lng": 121.50316000054738, "lat": 25.135560005500707 }, "geometry": { "type": "Point", "coordinates": [ 121.503160000547382, 25.135560005500707 ] } },
{ "type": "Feature", "properties": { "name": "內政部警政署保安警察第一總隊職場互助教保服務中心（委託社團法人臺北市教保托育協會辦理）", "district": "北投區", "type": "私立", "address": "[112]立農街二段301號2樓", "telephone": "(02)28216526", "people": "60", "quasi-public": "無", "lng": 121.51685996983053, "lat": 25.118889992646359 }, "geometry": { "type": "Point", "coordinates": [ 121.516859969830534, 25.118889992646359 ] } },
{ "type": "Feature", "properties": { "name": "臺北市私立櫻之圓蒙特梭利幼兒園", "district": "內湖區", "type": "私立", "address": "[114]環山路1段24巷10號1.2樓", "telephone": "(02)87975200", "people": "40", "quasi-public": "無", "lng": 121.56516001632679, "lat": 25.084450009783936 }, "geometry": { "type": "Point", "coordinates": [ 121.565160016326786, 25.084450009783936 ] } },
{ "type": "Feature", "properties": { "name": "臺北市私立快樂幼兒園", "district": "內湖區", "type": "私立", "address": "[114]民權東路6段280巷8號1.2樓", "telephone": "(02)26311292", "people": "48", "quasi-public": "無", "lng": 121.6091210938453, "lat": 25.068931201181059 }, "geometry": { "type": "Point", "coordinates": [ 121.609121093845303, 25.068931201181059 ] } },
{ "type": "Feature", "properties": { "name": "臺北市私立東湖幼兒園", "district": "內湖區", "type": "私立", "address": "[114]康樂街85巷33、35、37號1樓", "telephone": "(02)26310351", "people": "60", "quasi-public": "110-112 符合", "lng": 121.61973187027004, "lat": 25.069570996003034 }, "geometry": { "type": "Point", "coordinates": [ 121.619731870270044, 25.069570996003034 ] } },
{ "type": "Feature", "properties": { "name": "臺北市私立幼新幼兒園", "district": "內湖區", "type": "私立", "address": "[114]成功路二段312巷46、48號1樓", "telephone": "(02)27916362", "people": "90", "quasi-public": "無", "lng": 121.56355, "lat": 25.03737 }, "geometry": { "type": "Point", "coordinates": [ 121.56355, 25.03737 ] } },
{ "type": "Feature", "properties": { "name": "臺北市私立文心幼兒園", "district": "內湖區", "type": "私立", "address": "[114]星雲街68巷8、10、12號1樓", "telephone": "(02)27902507", "people": "120", "quasi-public": "110-112 符合", "lng": 121.59128328293826, "lat": 25.078177292204423 }, "geometry": { "type": "Point", "coordinates": [ 121.591283282938264, 25.078177292204423 ] } },
{ "type": "Feature", "properties": { "name": "臺北市私立美敦幼兒園", "district": "內湖區", "type": "私立", "address": "[114]內湖路一段591巷11弄9、11號1樓", "telephone": "(02)26270758", "people": "76", "quasi-public": "無", "lng": 121.56355, "lat": 25.03737 }, "geometry": { "type": "Point", "coordinates": [ 121.56355, 25.03737 ] } },
{ "type": "Feature", "properties": { "name": "臺北市私立塞凡提甜心幼兒園", "district": "內湖區", "type": "私立", "address": "[114]康寧路3段189巷42號1樓、189巷80弄36號1樓", "telephone": "(02)26331385", "people": "40", "quasi-public": "無", "lng": 121.61325998679422, "lat": 25.071019979692537 }, "geometry": { "type": "Point", "coordinates": [ 121.613259986794219, 25.071019979692537 ] } },
{ "type": "Feature", "properties": { "name": "臺北市私立諾貝爾幼兒園", "district": "內湖區", "type": "私立", "address": "[114]金湖路415號1樓及417號1樓", "telephone": "(02)26330368", "people": "62", "quasi-public": "無", "lng": 121.60465001203335, "lat": 25.073299983084809 }, "geometry": { "type": "Point", "coordinates": [ 121.604650012033346, 25.073299983084809 ] } },
{ "type": "Feature", "properties": { "name": "臺北市私立潭美幼兒園", "district": "內湖區", "type": "私立", "address": "[114]東湖路160巷10弄20、22、24號", "telephone": "(02)26319070", "people": "52", "quasi-public": "110-112 符合", "lng": 121.61652003802715, "lat": 25.067588359454184 }, "geometry": { "type": "Point", "coordinates": [ 121.616520038027147, 25.067588359454184 ] } },
{ "type": "Feature", "properties": { "name": "臺北市私立明昶幼兒園", "district": "內湖區", "type": "私立", "address": "[114]康寧路3段99巷10弄6號1樓及2樓", "telephone": "(02)26323564", "people": "34", "quasi-public": "110-112 符合", "lng": 121.61072119373341, "lat": 25.07208945058451 }, "geometry": { "type": "Point", "coordinates": [ 121.610721193733411, 25.07208945058451 ] } },
{ "type": "Feature", "properties": { "name": "臺北市私立民祥幼兒園", "district": "內湖區", "type": "私立", "address": "[114]麗山街338巷5、7號1樓", "telephone": "(02)27986739", "people": "60", "quasi-public": "110-112 符合", "lng": 121.57353134085369, "lat": 25.082418110138324 }, "geometry": { "type": "Point", "coordinates": [ 121.573531340853691, 25.082418110138324 ] } },
{ "type": "Feature", "properties": { "name": "康軒文教事業股份有限公司附設臺北市私立員工子女幼兒園", "district": "內湖區", "type": "私立", "address": "[114]文德路66巷99號1至3樓", "telephone": "(02)27990099", "people": "293", "quasi-public": "無", "lng": 121.58233000970552, "lat": 25.075820002274497 }, "geometry": { "type": "Point", "coordinates": [ 121.582330009705515, 25.075820002274497 ] } },
{ "type": "Feature", "properties": { "name": "臺北市私立國際蒙特梭利內湖幼兒園", "district": "內湖區", "type": "私立", "address": "[114]大湖街166巷18號1樓至2樓", "telephone": "(02)27902950", "people": "40", "quasi-public": "無", "lng": 121.60127998404266, "lat": 25.08356001930477 }, "geometry": { "type": "Point", "coordinates": [ 121.601279984042662, 25.08356001930477 ] } },
{ "type": "Feature", "properties": { "name": "臺北市私立森林學館幼兒園", "district": "內湖區", "type": "私立", "address": "[114]陽光街65號1樓", "telephone": "(02)26577679", "people": "38", "quasi-public": "110-112 符合", "lng": 121.58646999932193, "lat": 25.076060018071928 }, "geometry": { "type": "Point", "coordinates": [ 121.586469999321935, 25.076060018071928 ] } },
{ "type": "Feature", "properties": { "name": "臺北市私立陽光森林麗湖幼兒園", "district": "內湖區", "type": "私立", "address": "[114]內湖路二段103巷48號1樓", "telephone": "(02)27997707", "people": "21", "quasi-public": "110-112 符合", "lng": 121.58085999152661, "lat": 25.08220998806982 }, "geometry": { "type": "Point", "coordinates": [ 121.580859991526609, 25.08220998806982 ] } },
{ "type": "Feature", "properties": { "name": "臺北市私立惠登幼兒園", "district": "內湖區", "type": "私立", "address": "[114]康寧路三段189巷52號1樓", "telephone": "(02)26335935", "people": "23", "quasi-public": "110-112 符合", "lng": 121.61301003844153, "lat": 25.071400015182519 }, "geometry": { "type": "Point", "coordinates": [ 121.61301003844153, 25.071400015182519 ] } },
{ "type": "Feature", "properties": { "name": "臺北市私立廣教幼兒園", "district": "內湖區", "type": "私立", "address": "[114]成功路三段187巷35弄2號1樓及4號1樓", "telephone": "(02)27930308", "people": "40", "quasi-public": "111-112 符合", "lng": 121.59168999716252, "lat": 25.079380006100692 }, "geometry": { "type": "Point", "coordinates": [ 121.591689997162518, 25.079380006100692 ] } },
{ "type": "Feature", "properties": { "name": "臺北市私立何嘉仁新湖幼兒園", "district": "內湖區", "type": "私立", "address": "[114]民權東路6段196號", "telephone": "(02)27922776", "people": "370", "quasi-public": "無", "lng": 121.59516002125815, "lat": 25.06833001741596 }, "geometry": { "type": "Point", "coordinates": [ 121.595160021258152, 25.06833001741596 ] } },
{ "type": "Feature", "properties": { "name": "臺北市私立柏克立幼兒園", "district": "內湖區", "type": "私立", "address": "[114]金湖路363巷45號1樓至3樓", "telephone": "(02)26347688", "people": "100", "quasi-public": "110-112 符合", "lng": 121.60093003958508, "lat": 25.073320015833403 }, "geometry": { "type": "Point", "coordinates": [ 121.60093003958508, 25.073320015833403 ] } },
{ "type": "Feature", "properties": { "name": "臺北市私立華泰幼兒園", "district": "內湖區", "type": "私立", "address": "[114]大湖山莊街21巷2號", "telephone": "(02)27928335", "people": "60", "quasi-public": "無", "lng": 121.60242998115831, "lat": 25.084530015049751 }, "geometry": { "type": "Point", "coordinates": [ 121.602429981158309, 25.084530015049751 ] } },
{ "type": "Feature", "properties": { "name": "臺北市私立立湖幼兒園", "district": "內湖區", "type": "私立", "address": "[114]金龍路222巷1弄1號", "telephone": "(02)27902228", "people": "60", "quasi-public": "無", "lng": 121.58630998879033, "lat": 25.08817999860652 }, "geometry": { "type": "Point", "coordinates": [ 121.586309988790333, 25.08817999860652 ] } },
{ "type": "Feature", "properties": { "name": "臺北市私立心惠幼兒園", "district": "內湖區", "type": "私立", "address": "[114]麗山街62巷18弄2、4、6號1樓", "telephone": "(02)26270022", "people": "120", "quasi-public": "110-112 符合", "lng": 121.57855774318858, "lat": 25.081452937117959 }, "geometry": { "type": "Point", "coordinates": [ 121.578557743188583, 25.081452937117959 ] } },
{ "type": "Feature", "properties": { "name": "臺北市私立奧斯福爾幼兒園", "district": "內湖區", "type": "私立", "address": "[114]康寧路三段16巷53號1樓至2樓", "telephone": "(02)26340258#192", "people": "180", "quasi-public": "無", "lng": 121.60839999169502, "lat": 25.071320009916704 }, "geometry": { "type": "Point", "coordinates": [ 121.608399991695023, 25.071320009916704 ] } },
{ "type": "Feature", "properties": { "name": "臺北市私立喬治亞幼兒園", "district": "內湖區", "type": "私立", "address": "[114]內湖路二段334之1號", "telephone": "(02)27901110", "people": "257", "quasi-public": "無", "lng": 121.58889999687153, "lat": 25.081539980639491 }, "geometry": { "type": "Point", "coordinates": [ 121.588899996871532, 25.081539980639491 ] } },
{ "type": "Feature", "properties": { "name": "臺北市私立幼欣幼兒園", "district": "內湖區", "type": "私立", "address": "[114]成功路二段312巷66、68號1樓", "telephone": "(02)27918852", "people": "30", "quasi-public": "無", "lng": 121.56355, "lat": 25.03737 }, "geometry": { "type": "Point", "coordinates": [ 121.56355, 25.03737 ] } },
{ "type": "Feature", "properties": { "name": "臺北市私立咪咪幼兒園", "district": "內湖區", "type": "私立", "address": "[114]文德路66巷69弄30號1樓", "telephone": "(02)26576881", "people": "47", "quasi-public": "無", "lng": 121.58288361097671, "lat": 25.076720706930903 }, "geometry": { "type": "Point", "coordinates": [ 121.582883610976708, 25.076720706930903 ] } },
{ "type": "Feature", "properties": { "name": "臺北市私立小百合蒙特梭利幼兒園", "district": "內湖區", "type": "私立", "address": "[114]星雲街37號1樓", "telephone": "(02)27946751", "people": "30", "quasi-public": "無", "lng": 121.59153996109569, "lat": 25.078879983666766 }, "geometry": { "type": "Point", "coordinates": [ 121.591539961095691, 25.078879983666766 ] } },
{ "type": "Feature", "properties": { "name": "臺北市私立聖育幼兒園", "district": "內湖區", "type": "私立", "address": "[114]內湖路三段60巷9、11號1樓至2樓", "telephone": "(02)27909417", "people": "56", "quasi-public": "111-112 符合", "lng": 121.59302927726014, "lat": 25.088748707094496 }, "geometry": { "type": "Point", "coordinates": [ 121.593029277260143, 25.088748707094496 ] } },
{ "type": "Feature", "properties": { "name": "臺北市私立勁寶兒文德幼兒園", "district": "內湖區", "type": "私立", "address": "[114]內湖路二段130號1樓", "telephone": "(02)26598109", "people": "30", "quasi-public": "無", "lng": 121.58240997306183, "lat": 25.079519983883728 }, "geometry": { "type": "Point", "coordinates": [ 121.582409973061829, 25.079519983883728 ] } },
{ "type": "Feature", "properties": { "name": "臺北市私立聖喬治幼兒園", "district": "內湖區", "type": "私立", "address": "[114]民權東路六段296巷40、42、42-1號1樓及42號2樓", "telephone": "(02)26337996", "people": "150", "quasi-public": "無", "lng": 121.60732520577007, "lat": 25.071427852937582 }, "geometry": { "type": "Point", "coordinates": [ 121.607325205770067, 25.071427852937582 ] } },
{ "type": "Feature", "properties": { "name": "臺北市私立巧可麗查理布朗幼兒園", "district": "內湖區", "type": "私立", "address": "[114]成功路三段174巷10號2樓", "telephone": "(02)87926411", "people": "35", "quasi-public": "無", "lng": 121.5902794473284, "lat": 25.08196776558362 }, "geometry": { "type": "Point", "coordinates": [ 121.590279447328399, 25.08196776558362 ] } },
{ "type": "Feature", "properties": { "name": "臺北市私立小小百合蒙特梭利幼兒園", "district": "內湖區", "type": "私立", "address": "[114]星雲街38號1樓", "telephone": "(02)27937756", "people": "29", "quasi-public": "無", "lng": 121.59126000552965, "lat": 25.078399993981421 }, "geometry": { "type": "Point", "coordinates": [ 121.591260005529648, 25.078399993981421 ] } },
{ "type": "Feature", "properties": { "name": "臺北市私立小瓢蟲幼兒園", "district": "內湖區", "type": "私立", "address": "[114]星雲街35號1樓", "telephone": "(02)27920986", "people": "34", "quasi-public": "無", "lng": 121.59149997941756, "lat": 25.078779987561873 }, "geometry": { "type": "Point", "coordinates": [ 121.591499979417563, 25.078779987561873 ] } },
{ "type": "Feature", "properties": { "name": "臺北市私立內湖科見幼兒園", "district": "內湖區", "type": "私立", "address": "[114]成功路五段460號2樓及2樓之1", "telephone": "(02)26348876", "people": "110", "quasi-public": "無", "lng": 121.60653996356137, "lat": 25.074069986620017 }, "geometry": { "type": "Point", "coordinates": [ 121.606539963561374, 25.074069986620017 ] } },
{ "type": "Feature", "properties": { "name": "臺北市私立恩貝亞幼兒園", "district": "內湖區", "type": "私立", "address": "[114]金湖路179號1樓至2樓", "telephone": "(02)27916484", "people": "80", "quasi-public": "無", "lng": 121.5991900403049, "lat": 25.079289984460587 }, "geometry": { "type": "Point", "coordinates": [ 121.599190040304904, 25.079289984460587 ] } },
{ "type": "Feature", "properties": { "name": "臺北市私立小荳荳幼兒園", "district": "內湖區", "type": "私立", "address": "[114]民權東路六段172號1至3樓", "telephone": "(02)27937710", "people": "51", "quasi-public": "無", "lng": 121.59156996830905, "lat": 25.068250012150145 }, "geometry": { "type": "Point", "coordinates": [ 121.591569968309045, 25.068250012150145 ] } },
{ "type": "Feature", "properties": { "name": "臺北市私立家田幼兒園", "district": "內湖區", "type": "私立", "address": "[114]大湖街158巷2之3號1、2樓及2樓之1", "telephone": "(02)87918587", "people": "40", "quasi-public": "無", "lng": 121.60007215485805, "lat": 25.081709361512647 }, "geometry": { "type": "Point", "coordinates": [ 121.600072154858054, 25.081709361512647 ] } },
{ "type": "Feature", "properties": { "name": "臺北市私立嘉霙幼兒園", "district": "內湖區", "type": "私立", "address": "[114]陽光街116號1樓", "telephone": "(02)26278523", "people": "23", "quasi-public": "無", "lng": 121.584149972342, "lat": 25.075080005952657 }, "geometry": { "type": "Point", "coordinates": [ 121.584149972342004, 25.075080005952657 ] } },
{ "type": "Feature", "properties": { "name": "臺北市私立麻雀素食幼兒園", "district": "內湖區", "type": "私立", "address": "[114]康樂街141之2號1樓", "telephone": "(02)26315918", "people": "18", "quasi-public": "無", "lng": 121.61984003224404, "lat": 25.074219980777343 }, "geometry": { "type": "Point", "coordinates": [ 121.619840032244042, 25.074219980777343 ] } },
{ "type": "Feature", "properties": { "name": "臺北市私立塞凡提幼兒園", "district": "內湖區", "type": "私立", "address": "[114]民權東路六段296巷31弄4號1樓", "telephone": "(02)26312809", "people": "19", "quasi-public": "無", "lng": 121.6059512445832, "lat": 25.071549232739962 }, "geometry": { "type": "Point", "coordinates": [ 121.605951244583196, 25.071549232739962 ] } },
{ "type": "Feature", "properties": { "name": "臺北市私立凱菲林幼兒園", "district": "內湖區", "type": "私立", "address": "[114]康寧路三段54之5號2樓", "telephone": "(02)26346557", "people": "40", "quasi-public": "無", "lng": 121.60917003713973, "lat": 25.071650005444724 }, "geometry": { "type": "Point", "coordinates": [ 121.609170037139734, 25.071650005444724 ] } },
{ "type": "Feature", "properties": { "name": "臺北市私立卡爾維德幼兒園", "district": "內湖區", "type": "私立", "address": "[114]康寧路三段16巷35號1、2樓及33號2樓", "telephone": "(02)26348514", "people": "80", "quasi-public": "110-112 符合", "lng": 121.60768996067702, "lat": 25.07186998849356 }, "geometry": { "type": "Point", "coordinates": [ 121.607689960677021, 25.07186998849356 ] } },
{ "type": "Feature", "properties": { "name": "臺北市私立多元智慧幼兒園", "district": "內湖區", "type": "私立", "address": "[114]文德路90巷39號1樓", "telephone": "(02)26598800", "people": "151", "quasi-public": "無", "lng": 121.58282001576515, "lat": 25.077290020453418 }, "geometry": { "type": "Point", "coordinates": [ 121.582820015765151, 25.077290020453418 ] } },
{ "type": "Feature", "properties": { "name": "臺北市私立華泰大湖幼兒園", "district": "內湖區", "type": "私立", "address": "[114]大湖山莊街21巷2號2樓", "telephone": "(02)27928335", "people": "53", "quasi-public": "無", "lng": 121.60221004001897, "lat": 25.085810015483673 }, "geometry": { "type": "Point", "coordinates": [ 121.602210040018974, 25.085810015483673 ] } },
{ "type": "Feature", "properties": { "name": "臺北市私立卡爾維德蒙特梭利幼兒園", "district": "內湖區", "type": "私立", "address": "[114]東湖路113巷50號1樓", "telephone": "(02)26335356", "people": "40", "quasi-public": "無", "lng": 121.61598997265844, "lat": 25.070639986112084 }, "geometry": { "type": "Point", "coordinates": [ 121.61598997265844, 25.070639986112084 ] } },
{ "type": "Feature", "properties": { "name": "臺北市私立優幼園幼兒園", "district": "內湖區", "type": "私立", "address": "[114]成功路四段30巷11號1樓", "telephone": "(02)27922182", "people": "19", "quasi-public": "無", "lng": 121.59194421969451, "lat": 25.082419143023468 }, "geometry": { "type": "Point", "coordinates": [ 121.591944219694511, 25.082419143023468 ] } },
{ "type": "Feature", "properties": { "name": "臺北市私立融恩幼兒園", "district": "內湖區", "type": "私立", "address": "[114]金湖路16之11號1樓", "telephone": "(02)87919961", "people": "22", "quasi-public": "110-112 符合", "lng": 121.6022143540047, "lat": 25.073717276994913 }, "geometry": { "type": "Point", "coordinates": [ 121.602214354004701, 25.073717276994913 ] } },
{ "type": "Feature", "properties": { "name": "臺北市私立來來幼兒園", "district": "內湖區", "type": "私立", "address": "[114]民權東路六段280巷50號1樓", "telephone": "(02)26325432", "people": "48", "quasi-public": "無", "lng": 121.60757001564258, "lat": 25.070719991377885 }, "geometry": { "type": "Point", "coordinates": [ 121.60757001564258, 25.070719991377885 ] } },
{ "type": "Feature", "properties": { "name": "臺北市私立柏克萊幼兒園", "district": "內湖區", "type": "私立", "address": "[114]金湖路363巷17號1樓至3樓及19號1樓", "telephone": "(02)26333002", "people": "69", "quasi-public": "110-112 符合", "lng": 121.59970384144513, "lat": 25.073062556018861 }, "geometry": { "type": "Point", "coordinates": [ 121.599703841445134, 25.073062556018861 ] } },
{ "type": "Feature", "properties": { "name": "臺北市私立聖安幼兒園", "district": "內湖區", "type": "私立", "address": "[114]民權東路六段296巷69號及75號1樓", "telephone": "(02)26329810", "people": "40", "quasi-public": "112-112 符合", "lng": 121.60767001174747, "lat": 25.070990014388684 }, "geometry": { "type": "Point", "coordinates": [ 121.607670011747473, 25.070990014388684 ] } },
{ "type": "Feature", "properties": { "name": "臺北市私立山谷小百合蒙特梭利幼兒園", "district": "內湖區", "type": "私立", "address": "[114]康寧路三段189巷56及58號1樓", "telephone": "(02)26315887", "people": "32", "quasi-public": "無", "lng": 121.61292999126618, "lat": 25.071550009339845 }, "geometry": { "type": "Point", "coordinates": [ 121.612929991266185, 25.071550009339845 ] } },
{ "type": "Feature", "properties": { "name": "恕德學校財團法人附設臺北市私立恕德幼兒園", "district": "內湖區", "type": "私立", "address": "[114]內湖路一段353號", "telephone": "(02)27997608", "people": "120", "quasi-public": "無", "lng": 121.56911996266297, "lat": 25.082330016923294 }, "geometry": { "type": "Point", "coordinates": [ 121.569119962662967, 25.082330016923294 ] } },
{ "type": "Feature", "properties": { "name": "臺北市私立華盛頓幼兒園", "district": "內湖區", "type": "私立", "address": "[114]瑞光路271號1樓至2樓", "telephone": "(02)26576155", "people": "123", "quasi-public": "無", "lng": 121.57681002355031, "lat": 25.07534998705394 }, "geometry": { "type": "Point", "coordinates": [ 121.576810023550308, 25.07534998705394 ] } },
{ "type": "Feature", "properties": { "name": "臺北市私立英格幼兒園", "district": "內湖區", "type": "私立", "address": "[114]民權東路六段180巷23、25、29、31號1、2、3樓", "telephone": "(02)2791-1809", "people": "211", "quasi-public": "無", "lng": 140.60114022000005, "lat": 37.945288040000037 }, "geometry": { "type": "Point", "coordinates": [ 140.601140220000048, 37.945288040000037 ] } },
{ "type": "Feature", "properties": { "name": "遊戲橘子數位科技股份有限公司附設臺北市私立員工子女幼橘園幼兒園", "district": "內湖區", "type": "私立", "address": "[114]港墘路221巷33號1樓", "telephone": "(02)26589690", "people": "75", "quasi-public": "無", "lng": 121.57491001373853, "lat": 25.073320015833403 }, "geometry": { "type": "Point", "coordinates": [ 121.574910013738531, 25.073320015833403 ] } },
{ "type": "Feature", "properties": { "name": "臺北市私立小綠山森林幼兒園", "district": "內湖區", "type": "私立", "address": "[114]成功路五段臨37號", "telephone": "(02)26307030", "people": "65", "quasi-public": "無", "lng": 121.60698001347805, "lat": 25.075479990372187 }, "geometry": { "type": "Point", "coordinates": [ 121.606980013478051, 25.075479990372187 ] } },
{ "type": "Feature", "properties": { "name": "臺北市私立諾貝爾金湖幼兒園", "district": "內湖區", "type": "私立", "address": "[114]金湖路419號2樓", "telephone": "(02)26330368", "people": "30", "quasi-public": "無", "lng": 121.60478001535159, "lat": 25.073299983084809 }, "geometry": { "type": "Point", "coordinates": [ 121.604780015351594, 25.073299983084809 ] } },
{ "type": "Feature", "properties": { "name": "臺北市私立諾貝爾內湖幼兒園", "district": "內湖區", "type": "私立", "address": "[114]金湖路417號2樓", "telephone": "(02)26330368", "people": "30", "quasi-public": "無", "lng": 121.60468999371153, "lat": 25.073299983084809 }, "geometry": { "type": "Point", "coordinates": [ 121.604689993711531, 25.073299983084809 ] } },
{ "type": "Feature", "properties": { "name": "臺北市私立華泰種子幼兒園", "district": "內湖區", "type": "私立", "address": "[114]大湖山莊街97號1、2樓", "telephone": "(02)27928359", "people": "51", "quasi-public": "無", "lng": 121.60202002227402, "lat": 25.084769988937666 }, "geometry": { "type": "Point", "coordinates": [ 121.602020022274019, 25.084769988937666 ] } },
{ "type": "Feature", "properties": { "name": "臺北市私立湖畔小百合蒙特梭利幼兒園", "district": "內湖區", "type": "私立", "address": "[114]大湖山莊街85號", "telephone": "(02)27946033", "people": "50", "quasi-public": "無", "lng": 121.60206000395215, "lat": 25.085910011588552 }, "geometry": { "type": "Point", "coordinates": [ 121.602060003952147, 25.085910011588552 ] } },
{ "type": "Feature", "properties": { "name": "臺北市私立塞凡提凱旋幼兒園", "district": "內湖區", "type": "私立", "address": "[114]民權東路六段296巷61號及61之2號1至2樓", "telephone": "(02)26324058", "people": "36", "quasi-public": "無", "lng": 121.60747001953769, "lat": 25.071170015759378 }, "geometry": { "type": "Point", "coordinates": [ 121.607470019537686, 25.071170015759378 ] } },
{ "type": "Feature", "properties": { "name": "臺北市璽典職場互助教保服務中心", "district": "內湖區", "type": "私立", "address": "[114]石潭路65號2樓及67號2樓", "telephone": "(02)27948812", "people": "60", "quasi-public": "無", "lng": 121.58723996094767, "lat": 25.062820005725513 }, "geometry": { "type": "Point", "coordinates": [ 121.58723996094767, 25.062820005725513 ] } },
{ "type": "Feature", "properties": { "name": "臺北市私立卡爾蒙特梭利幼兒園", "district": "內湖區", "type": "私立", "address": "[114]東湖路113巷50之1、2號1樓", "telephone": "(02)26340919", "people": "60", "quasi-public": "無", "lng": 121.61597999819367, "lat": 25.070689984164517 }, "geometry": { "type": "Point", "coordinates": [ 121.615979998193666, 25.070689984164517 ] } },
{ "type": "Feature", "properties": { "name": "臺北市私立人川幼兒園", "district": "內湖區", "type": "私立", "address": "[114]民權東路六段180巷6號1樓", "telephone": "(02)27926601", "people": "180", "quasi-public": "無", "lng": 121.59264997653321, "lat": 25.068189997723408 }, "geometry": { "type": "Point", "coordinates": [ 121.59264997653321, 25.068189997723408 ] } },
{ "type": "Feature", "properties": { "name": "臺北市私立大方凌雲幼兒園", "district": "南港區", "type": "私立", "address": "[115]研究院路三段2巷2、6、8號1樓", "telephone": "(02)27820190", "people": "62", "quasi-public": "無", "lng": 121.6168865849592, "lat": 25.036343720467062 }, "geometry": { "type": "Point", "coordinates": [ 121.616886584959204, 25.036343720467062 ] } },
{ "type": "Feature", "properties": { "name": "臺北市私立新莒光幼兒園", "district": "南港區", "type": "私立", "address": "[115]研究院路2段35巷13號1樓", "telephone": "(02)26510502", "people": "41", "quasi-public": "無", "lng": 121.61708374062309, "lat": 25.046471469269473 }, "geometry": { "type": "Point", "coordinates": [ 121.617083740623087, 25.046471469269473 ] } },
{ "type": "Feature", "properties": { "name": "臺北市私立南光幼兒園", "district": "南港區", "type": "私立", "address": "[115]研究院路二段61巷2弄41號及43號1樓", "telephone": "(02)27823329", "people": "92", "quasi-public": "無", "lng": 121.61844000295662, "lat": 25.043379983419257 }, "geometry": { "type": "Point", "coordinates": [ 121.618440002956618, 25.043379983419257 ] } },
{ "type": "Feature", "properties": { "name": "臺北市私立莒光幼兒園", "district": "南港區", "type": "私立", "address": "[115]舊莊街一段145巷6弄31號", "telephone": "(02)27821776", "people": "120", "quasi-public": "110-112 符合", "lng": 121.62201999762192, "lat": 25.039560014866083 }, "geometry": { "type": "Point", "coordinates": [ 121.622019997621919, 25.039560014866083 ] } },
{ "type": "Feature", "properties": { "name": "臺北市私立樹德幼兒園", "district": "南港區", "type": "私立", "address": "[115]東新街80巷11弄2號、4號", "telephone": "(02)27854601", "people": "90", "quasi-public": "110-112 符合", "lng": 121.58728368056754, "lat": 25.045544016995198 }, "geometry": { "type": "Point", "coordinates": [ 121.587283680567538, 25.045544016995198 ] } },
{ "type": "Feature", "properties": { "name": "臺北市私立龍華幼兒園", "district": "南港區", "type": "私立", "address": "[115]玉成街247號1樓至4樓、247-1號1樓", "telephone": "(02)27867166", "people": "246", "quasi-public": "無", "lng": 121.58591000437082, "lat": 25.042960008160662 }, "geometry": { "type": "Point", "coordinates": [ 121.585910004370817, 25.042960008160662 ] } },
{ "type": "Feature", "properties": { "name": "臺北市私立大大樹幼兒園", "district": "南港區", "type": "私立", "address": "[115]玉成街46及48號1樓", "telephone": "(02)27851516", "people": "61", "quasi-public": "無", "lng": 121.58141001201301, "lat": 25.048319983784253 }, "geometry": { "type": "Point", "coordinates": [ 121.581410012013009, 25.048319983784253 ] } },
{ "type": "Feature", "properties": { "name": "財團法人國光慈善事業基金會附設臺北市私立三軍幼兒園", "district": "南港區", "type": "私立", "address": "[115]南港路二段146號1樓", "telephone": "(02)27858410#504", "people": "300", "quasi-public": "無", "lng": 121.60048998966835, "lat": 25.05384001184899 }, "geometry": { "type": "Point", "coordinates": [ 121.600489989668347, 25.05384001184899 ] } },
{ "type": "Feature", "properties": { "name": "世平興業股份有限公司附設臺北市私立員工子女幼兒園", "district": "南港區", "type": "私立", "address": "[115]成功路一段70、72、74號1樓", "telephone": "(02)26530137", "people": "140", "quasi-public": "無", "lng": 121.56355, "lat": 25.03737 }, "geometry": { "type": "Point", "coordinates": [ 121.56355, 25.03737 ] } },
{ "type": "Feature", "properties": { "name": "臺北市私立惠群幼兒園", "district": "南港區", "type": "私立", "address": "[115]合順街8巷5弄5號1樓", "telephone": "(02)26511256", "people": "16", "quasi-public": "110-112 符合", "lng": 121.61979996674683, "lat": 25.042439994887658 }, "geometry": { "type": "Point", "coordinates": [ 121.619799966746825, 25.042439994887658 ] } },
{ "type": "Feature", "properties": { "name": "臺北市私立大華幼兒園", "district": "南港區", "type": "私立", "address": "[115]忠孝東路6段212巷4弄5、7及9號1樓", "telephone": "(02)26533111", "people": "120", "quasi-public": "110-112 符合", "lng": 121.58721823887628, "lat": 25.047966891143179 }, "geometry": { "type": "Point", "coordinates": [ 121.587218238876275, 25.047966891143179 ] } },
{ "type": "Feature", "properties": { "name": "臺北市私立海格斯大千幼兒園", "district": "南港區", "type": "私立", "address": "[115]福德街310巷30、32及34號1樓", "telephone": "(02)27868889", "people": "120", "quasi-public": "110-112 符合", "lng": 121.58733763945237, "lat": 25.040343496467827 }, "geometry": { "type": "Point", "coordinates": [ 121.587337639452372, 25.040343496467827 ] } },
{ "type": "Feature", "properties": { "name": "臺北市私立欣苗幼兒園", "district": "南港區", "type": "私立", "address": "[115]研究院路2段12巷58弄9號", "telephone": "(02)27823322", "people": "120", "quasi-public": "無", "lng": 121.61391000338546, "lat": 25.046900005567309 }, "geometry": { "type": "Point", "coordinates": [ 121.613910003385456, 25.046900005567309 ] } },
{ "type": "Feature", "properties": { "name": "臺北市私立傑生寶華國際幼兒園", "district": "南港區", "type": "私立", "address": "[115]成福路207巷7、9號1樓及211巷4號1樓", "telephone": "(02)27852538", "people": "120", "quasi-public": "無", "lng": 121.58924107480321, "lat": 25.04034899232828 }, "geometry": { "type": "Point", "coordinates": [ 121.589241074803212, 25.04034899232828 ] } },
{ "type": "Feature", "properties": { "name": "臺北市私立東美幼兒園", "district": "南港區", "type": "私立", "address": "[115]興南街52巷29、29-1、31、31-1號", "telephone": "(02)27868833", "people": "90", "quasi-public": "無", "lng": 121.60447695347632, "lat": 25.05705243969031 }, "geometry": { "type": "Point", "coordinates": [ 121.604476953476322, 25.05705243969031 ] } },
{ "type": "Feature", "properties": { "name": "中央研究院附設臺北市私立幼兒園", "district": "南港區", "type": "私立", "address": "[115]研究院路2段12巷75號1樓", "telephone": "(02)27871451", "people": "120", "quasi-public": "無", "lng": 121.61318002343791, "lat": 25.047579987462413 }, "geometry": { "type": "Point", "coordinates": [ 121.613180023437906, 25.047579987462413 ] } },
{ "type": "Feature", "properties": { "name": "臺北市私立達芬奇多元智能幼兒園", "district": "南港區", "type": "私立", "address": "[115]興華路32號1至4樓", "telephone": "(02)27881098", "people": "40", "quasi-public": "無", "lng": 121.6058300163624, "lat": 25.05525001560116 }, "geometry": { "type": "Point", "coordinates": [ 121.605830016362404, 25.05525001560116 ] } },
{ "type": "Feature", "properties": { "name": "臺北市私立小騎士幼兒園", "district": "南港區", "type": "私立", "address": "[115]成福路183號2樓", "telephone": "(02)26516526", "people": "176", "quasi-public": "110-112 符合", "lng": 121.58851996138156, "lat": 25.040869980603858 }, "geometry": { "type": "Point", "coordinates": [ 121.588519961381564, 25.040869980603858 ] } },
{ "type": "Feature", "properties": { "name": "臺北市立南港高級中學教師會附設臺北市私立員工子女幼兒園", "district": "南港區", "type": "私立", "address": "[115]向陽路21號1樓", "telephone": "(02)27837863#297", "people": "40", "quasi-public": "110-112 符合", "lng": 121.59312163685712, "lat": 25.057003160248861 }, "geometry": { "type": "Point", "coordinates": [ 121.59312163685712, 25.057003160248861 ] } },
{ "type": "Feature", "properties": { "name": "臺北市私立甘霖幼兒園", "district": "南港區", "type": "私立", "address": "[115]南港路二段30、32號3樓至4樓及34、34之1號1樓至4樓", "telephone": "(02)27826308", "people": "95", "quasi-public": "無", "lng": 121.60527362103231, "lat": 25.054152742140019 }, "geometry": { "type": "Point", "coordinates": [ 121.60527362103231, 25.054152742140019 ] } },
{ "type": "Feature", "properties": { "name": "臺北市私立欣苗寶貝幼兒園", "district": "南港區", "type": "私立", "address": "[115]研究院路二段34巷15號1樓", "telephone": "(02)27823322", "people": "17", "quasi-public": "無", "lng": 121.6143000133402, "lat": 25.047240017469619 }, "geometry": { "type": "Point", "coordinates": [ 121.614300013340198, 25.047240017469619 ] } },
{ "type": "Feature", "properties": { "name": "臺北市私立道生南港幼兒園", "district": "南港區", "type": "私立", "address": "[115]重陽路187巷1號1樓", "telephone": "(02)27880661", "people": "70", "quasi-public": "無", "lng": 121.59879408033434, "lat": 25.057202324535716 }, "geometry": { "type": "Point", "coordinates": [ 121.598794080334343, 25.057202324535716 ] } },
{ "type": "Feature", "properties": { "name": "臺北市私立咪咪陳幼兒園", "district": "南港區", "type": "私立", "address": "[115]重陽路551號1樓", "telephone": "(02)27820568", "people": "30", "quasi-public": "無", "lng": 121.61407998838189, "lat": 25.063150001253533 }, "geometry": { "type": "Point", "coordinates": [ 121.614079988381889, 25.063150001253533 ] } },
{ "type": "Feature", "properties": { "name": "臺北市私立經貿夢想幼兒園", "district": "南港區", "type": "私立", "address": "[115]重陽路386號1樓至2樓", "telephone": "(02)2788-9859", "people": "300", "quasi-public": "無", "lng": 121.61010000929707, "lat": 25.059179996633517 }, "geometry": { "type": "Point", "coordinates": [ 121.610100009297071, 25.059179996633517 ] } },
{ "type": "Feature", "properties": { "name": "財團法人天主教會台北教區附設臺北市私立萬福幼兒園", "district": "南港區", "type": "私立", "address": "[115]忠孝東路六段114之1號(1樓、2樓、3樓)", "telephone": "(02)27820020#9", "people": "199", "quasi-public": "無", "lng": 121.58719499203713, "lat": 25.049314999510216 }, "geometry": { "type": "Point", "coordinates": [ 121.587194992037126, 25.049314999510216 ] } },
{ "type": "Feature", "properties": { "name": "國防部軍備局光華營區職場互助教保服務中心（委託財團法人三之三生命教育基金會辦理）", "district": "南港區", "type": "私立", "address": "[115]昆陽街165號1樓", "telephone": "(02)2788-5366", "people": "40", "quasi-public": "無", "lng": 121.59323281709253, "lat": 25.048034997346395 }, "geometry": { "type": "Point", "coordinates": [ 121.593232817092527, 25.048034997346395 ] } },
{ "type": "Feature", "properties": { "name": "臺北市私立清華幼兒園", "district": "文山區", "type": "私立", "address": "[116]興隆路三段36巷9弄2號1樓", "telephone": "(02)29311714", "people": "39", "quasi-public": "110-112 符合", "lng": 121.5555064287542, "lat": 24.999881167341986 }, "geometry": { "type": "Point", "coordinates": [ 121.5555064287542, 24.999881167341986 ] } },
{ "type": "Feature", "properties": { "name": "臺北市私立巨星幼兒園", "district": "文山區", "type": "私立", "address": "[116]秀明路1段68,70,72號1樓", "telephone": "(02)29381987", "people": "53", "quasi-public": "無", "lng": 121.56572998574268, "lat": 24.990000000684518 }, "geometry": { "type": "Point", "coordinates": [ 121.565729985742678, 24.990000000684518 ] } },
{ "type": "Feature", "properties": { "name": "臺北市私立幼林幼兒園", "district": "文山區", "type": "私立", "address": "[116]景福街31號1樓", "telephone": "(02)29326469", "people": "37", "quasi-public": "110-112 符合", "lng": 121.54059438917432, "lat": 24.993394295000218 }, "geometry": { "type": "Point", "coordinates": [ 121.540594389174316, 24.993394295000218 ] } },
{ "type": "Feature", "properties": { "name": "臺北市私立文山仁和幼兒園", "district": "文山區", "type": "私立", "address": "[116]忠順街一段10巷11.13.15號1至2樓", "telephone": "(02)29364473", "people": "133", "quasi-public": "無", "lng": 121.55860000362554, "lat": 24.983209988560162 }, "geometry": { "type": "Point", "coordinates": [ 121.558600003625543, 24.983209988560162 ] } },
{ "type": "Feature", "properties": { "name": "臺北市私立家家幼兒園", "district": "文山區", "type": "私立", "address": "[116]興隆路三段二0七巷九弄9.11號1樓", "telephone": "(02)22307500", "people": "90", "quasi-public": "110-112 符合", "lng": 121.55498002728211, "lat": 25.000569999683918 }, "geometry": { "type": "Point", "coordinates": [ 121.554980027282113, 25.000569999683918 ] } },
{ "type": "Feature", "properties": { "name": "財團法人天主教會臺北教區附設臺北市私立若石幼兒園", "district": "文山區", "type": "私立", "address": "[116]羅斯福路五段51號1、2、3樓", "telephone": "(02)29328022", "people": "270", "quasi-public": "無", "lng": 121.53916999769359, "lat": 25.006930020175375 }, "geometry": { "type": "Point", "coordinates": [ 121.539169997693591, 25.006930020175375 ] } },
{ "type": "Feature", "properties": { "name": "臺北市私立寶馨幼兒園", "district": "文山區", "type": "私立", "address": "[116]溪口街85巷7弄6號1樓", "telephone": "(02)86635966", "people": "17", "quasi-public": "110-112 符合", "lng": 121.53861657423573, "lat": 24.994830087911581 }, "geometry": { "type": "Point", "coordinates": [ 121.538616574235732, 24.994830087911581 ] } },
{ "type": "Feature", "properties": { "name": "臺北市私立何嘉仁興隆幼兒園", "district": "文山區", "type": "私立", "address": "[116]興隆路二段252號2樓", "telephone": "(02)29310584", "people": "150", "quasi-public": "無", "lng": 121.55426002179934, "lat": 25.000689986627876 }, "geometry": { "type": "Point", "coordinates": [ 121.554260021799337, 25.000689986627876 ] } },
{ "type": "Feature", "properties": { "name": "財團法人台北市中華基督教青年會附設臺北市私立文山幼兒園", "district": "文山區", "type": "私立", "address": "[116]和興路2號1樓至2樓", "telephone": "(02)22362817", "people": "228", "quasi-public": "110-112 符合", "lng": 121.54644004141278, "lat": 24.985480017487646 }, "geometry": { "type": "Point", "coordinates": [ 121.546440041412779, 24.985480017487646 ] } },
{ "type": "Feature", "properties": { "name": "臺北市私立荳荳幼兒園", "district": "文山區", "type": "私立", "address": "[116]木柵路一段59巷2號1樓", "telephone": "(02)22369488", "people": "33", "quasi-public": "110-112 符合", "lng": 121.54674002972746, "lat": 24.988049992820265 }, "geometry": { "type": "Point", "coordinates": [ 121.546740029727459, 24.988049992820265 ] } },
{ "type": "Feature", "properties": { "name": "臺北市私立比利馬幼兒園", "district": "文山區", "type": "私立", "address": "[116]木柵路一段87號1樓", "telephone": "(02)22362468", "people": "24", "quasi-public": "112-112 符合", "lng": 121.54717002136033, "lat": 24.987069980700994 }, "geometry": { "type": "Point", "coordinates": [ 121.54717002136033, 24.987069980700994 ] } },
{ "type": "Feature", "properties": { "name": "臺北市私立吉太幼兒園", "district": "文山區", "type": "私立", "address": "[116]木新路三段45巷7弄8、10、12號1樓", "telephone": "(02)29392220", "people": "60", "quasi-public": "110-112 符合", "lng": 121.56539890407433, "lat": 24.982343998103961 }, "geometry": { "type": "Point", "coordinates": [ 121.565398904074328, 24.982343998103961 ] } },
{ "type": "Feature", "properties": { "name": "臺北市私立千千幼兒園", "district": "文山區", "type": "私立", "address": "[116]木柵路三段85巷8弄5號、5-1號1樓", "telephone": "(02)29397502", "people": "52", "quasi-public": "110-112 符合", "lng": 121.56714977509918, "lat": 24.989499735681264 }, "geometry": { "type": "Point", "coordinates": [ 121.567149775099182, 24.989499735681264 ] } },
{ "type": "Feature", "properties": { "name": "臺北市私立文山懷恩幼兒園", "district": "文山區", "type": "私立", "address": "[116]福興路63巷4弄26、28號1樓", "telephone": "(02)29308618", "people": "90", "quasi-public": "112-112 符合", "lng": 121.54923141150293, "lat": 25.004534305460744 }, "geometry": { "type": "Point", "coordinates": [ 121.54923141150293, 25.004534305460744 ] } },
{ "type": "Feature", "properties": { "name": "財團法人台北市華亞之聲社中華基督教便以利教會附設臺北市私立華聲幼兒園", "district": "文山區", "type": "私立", "address": "[116]指南路2段11號1樓", "telephone": "(02)29392038", "people": "235", "quasi-public": "110-112 符合", "lng": 121.57601303305718, "lat": 24.98766894863871 }, "geometry": { "type": "Point", "coordinates": [ 121.57601303305718, 24.98766894863871 ] } },
{ "type": "Feature", "properties": { "name": "臺北市私立樹人幼兒園", "district": "文山區", "type": "私立", "address": "[116]景華街121巷17弄9號", "telephone": "(02)29310558", "people": "120", "quasi-public": "110-112 符合", "lng": 121.54573001039483, "lat": 24.996860001700398 }, "geometry": { "type": "Point", "coordinates": [ 121.545730010394834, 24.996860001700398 ] } },
{ "type": "Feature", "properties": { "name": "臺北市私立仁美幼兒園", "district": "文山區", "type": "私立", "address": "[116]木柵路3段85巷14弄14號及14之1號1樓", "telephone": "(02)29395610", "people": "90", "quasi-public": "110-112 符合", "lng": 121.56696003003373, "lat": 24.989670005156512 }, "geometry": { "type": "Point", "coordinates": [ 121.566960030033727, 24.989670005156512 ] } },
{ "type": "Feature", "properties": { "name": "私立再興高級中學附設臺北市幼兒園", "district": "文山區", "type": "私立", "address": "[116]木柵路二段1-6號1樓至3樓", "telephone": "(02)29366803#302", "people": "540", "quasi-public": "無", "lng": 121.5588099703001, "lat": 24.988860019943147 }, "geometry": { "type": "Point", "coordinates": [ 121.558809970300103, 24.988860019943147 ] } },
{ "type": "Feature", "properties": { "name": "財團法人台北市中華基督教景美浸信會附設臺北市私立聖愛幼兒園", "district": "文山區", "type": "私立", "address": "[116]育英街63號", "telephone": "(02)29332244", "people": "90", "quasi-public": "無", "lng": 121.53870002438254, "lat": 24.992219989650053 }, "geometry": { "type": "Point", "coordinates": [ 121.538700024382536, 24.992219989650053 ] } },
{ "type": "Feature", "properties": { "name": "臺北市私立惠生幼兒園", "district": "文山區", "type": "私立", "address": "[116]興隆路三段207巷10弄1、3、9號", "telephone": "(02)22308526", "people": "90", "quasi-public": "110-112 符合", "lng": 121.56105482492181, "lat": 24.994839903116493 }, "geometry": { "type": "Point", "coordinates": [ 121.561054824921811, 24.994839903116493 ] } },
{ "type": "Feature", "properties": { "name": "臺北市私立書宜幼兒園", "district": "文山區", "type": "私立", "address": "[116]羅斯福路六段150巷22號1、2樓", "telephone": "(02)89322211", "people": "120", "quasi-public": "無", "lng": 121.5405299614838, "lat": 24.99566000653229 }, "geometry": { "type": "Point", "coordinates": [ 121.540529961483799, 24.99566000653229 ] } },
{ "type": "Feature", "properties": { "name": "靜心學校財團法人臺北市私立靜心高級中等學校附設幼兒園", "district": "文山區", "type": "私立", "address": "[116]興隆路二段46號", "telephone": "(02)29323118#514", "people": "410", "quasi-public": "無", "lng": 121.54667004083592, "lat": 24.998949987347686 }, "geometry": { "type": "Point", "coordinates": [ 121.54667004083592, 24.998949987347686 ] } },
{ "type": "Feature", "properties": { "name": "臺北市私立三義幼兒園", "district": "文山區", "type": "私立", "address": "[116]木柵路三段48巷1弄18、20號1樓", "telephone": "(02)86619636", "people": "50", "quasi-public": "110-112 符合", "lng": 121.56469759563753, "lat": 24.987994863897864 }, "geometry": { "type": "Point", "coordinates": [ 121.564697595637526, 24.987994863897864 ] } },
{ "type": "Feature", "properties": { "name": "臺北市私立何嘉仁文山幼兒園", "district": "文山區", "type": "私立", "address": "[116]羅斯福路六段130號1、2樓", "telephone": "(02)29306607", "people": "187", "quasi-public": "無", "lng": 121.54044002366271, "lat": 24.997090001123539 }, "geometry": { "type": "Point", "coordinates": [ 121.540440023662711, 24.997090001123539 ] } },
{ "type": "Feature", "properties": { "name": "臺北市私立巧可麗幼兒園", "district": "文山區", "type": "私立", "address": "[116]景福街17、19號1樓", "telephone": "(02)29303077", "people": "40", "quasi-public": "無", "lng": 121.53772998672804, "lat": 24.994720018000677 }, "geometry": { "type": "Point", "coordinates": [ 121.537729986728039, 24.994720018000677 ] } },
{ "type": "Feature", "properties": { "name": "臺北市私立幼學館幼兒園", "district": "文山區", "type": "私立", "address": "[116]木新路2段130號1、2樓及132號2樓", "telephone": "(02)22341515", "people": "40", "quasi-public": "無", "lng": 121.56923001705167, "lat": 24.984430016476864 }, "geometry": { "type": "Point", "coordinates": [ 121.569230017051666, 24.984430016476864 ] } },
{ "type": "Feature", "properties": { "name": "臺北市私立幼兒館幼兒園", "district": "文山區", "type": "私立", "address": "[116]木新路2段128號1、2樓", "telephone": "(02)22341515", "people": "34", "quasi-public": "無", "lng": 121.56926999872979, "lat": 24.984330020371985 }, "geometry": { "type": "Point", "coordinates": [ 121.569269998729794, 24.984330020371985 ] } },
{ "type": "Feature", "properties": { "name": "臺北市私立台北紐西蘭幼兒園", "district": "文山區", "type": "私立", "address": "[116]政大1街19號1樓至4樓", "telephone": "(02)86611156", "people": "280", "quasi-public": "無", "lng": 121.58322000018472, "lat": 24.985600004431603 }, "geometry": { "type": "Point", "coordinates": [ 121.583220000184724, 24.985600004431603 ] } },
{ "type": "Feature", "properties": { "name": "臺北市私立中山國民小學附設幼兒園", "district": "文山區", "type": "私立", "address": "[116]木柵路1段378巷26號", "telephone": "(02)29360935#170", "people": "270", "quasi-public": "無", "lng": 121.55679001545383, "lat": 24.987939980341096 }, "geometry": { "type": "Point", "coordinates": [ 121.556790015453828, 24.987939980341096 ] } },
{ "type": "Feature", "properties": { "name": "臺北市私立諾貝兒幼兒園", "district": "文山區", "type": "私立", "address": "[116]興隆路二段203巷112及114號1樓", "telephone": "(02)29351301", "people": "22", "quasi-public": "110-112 符合", "lng": 121.54728996639477, "lat": 25.003320018296748 }, "geometry": { "type": "Point", "coordinates": [ 121.547289966394771, 25.003320018296748 ] } },
{ "type": "Feature", "properties": { "name": "臺北市私立子愛幼兒園", "district": "文山區", "type": "私立", "address": "[116]興隆路四段165巷3、5號1樓", "telephone": "(02)29377790", "people": "30", "quasi-public": "110-112 符合", "lng": 121.56422996035042, "lat": 24.984480014529296 }, "geometry": { "type": "Point", "coordinates": [ 121.564229960350417, 24.984480014529296 ] } },
{ "type": "Feature", "properties": { "name": "臺北市私立和楓園幼兒園", "district": "文山區", "type": "私立", "address": "[116]辛亥路四段252巷1號1樓", "telephone": "(02)29301345", "people": "40", "quasi-public": "無", "lng": 121.55400001516284, "lat": 25.00160998432041 }, "geometry": { "type": "Point", "coordinates": [ 121.554000015162842, 25.00160998432041 ] } },
{ "type": "Feature", "properties": { "name": "臺北市私立宛的弗幼兒園", "district": "文山區", "type": "私立", "address": "[116]忠順街二段26及26之1號1樓至2樓", "telephone": "(02)29391207", "people": "40", "quasi-public": "110-112 符合", "lng": 121.56352998761622, "lat": 24.984699997578147 }, "geometry": { "type": "Point", "coordinates": [ 121.563529987616221, 24.984699997578147 ] } },
{ "type": "Feature", "properties": { "name": "臺北市私立立揚幼兒園", "district": "文山區", "type": "私立", "address": "[116]景興路258號1樓及夾層", "telephone": "(02)29333238", "people": "39", "quasi-public": "無", "lng": 121.54268997793213, "lat": 24.990080005950333 }, "geometry": { "type": "Point", "coordinates": [ 121.542689977932127, 24.990080005950333 ] } },
{ "type": "Feature", "properties": { "name": "臺北市私立阿布格幼兒園", "district": "文山區", "type": "私立", "address": "[116]興隆路四段173及175號1樓至2樓", "telephone": "(02)86613011", "people": "91", "quasi-public": "無", "lng": 121.56207002772112, "lat": 24.983819981563755 }, "geometry": { "type": "Point", "coordinates": [ 121.56207002772112, 24.983819981563755 ] } },
{ "type": "Feature", "properties": { "name": "臺北市私立快樂諾貝兒幼兒園", "district": "文山區", "type": "私立", "address": "[116]興隆路二段222之2號2樓", "telephone": "(02)29301241", "people": "40", "quasi-public": "110-112 符合", "lng": 121.5527500219423, "lat": 25.001359994058205 }, "geometry": { "type": "Point", "coordinates": [ 121.552750021942302, 25.001359994058205 ] } },
{ "type": "Feature", "properties": { "name": "臺北市私立勁寶兒公館幼兒園", "district": "文山區", "type": "私立", "address": "[116]萬盛街42號1樓", "telephone": "(02)86631486", "people": "23", "quasi-public": "無", "lng": 121.53919003044217, "lat": 25.007260015703395 }, "geometry": { "type": "Point", "coordinates": [ 121.539190030442171, 25.007260015703395 ] } }
]
}
