{
"type": "FeatureCollection",
"crs": { "type": "name", "properties": { "name": "urn:ogc:def:crs:OGC:1.3:CRS84" } },
"features": [
{ "type": "Feature", "properties": { "name": "臺北市螢橋非營利幼兒園(委託耕莘健康管理專科學校辦理)", "district": "中正區", "type": "非營利", "address": "[100]汀洲路三段4號", "telephone": "(02)23621061", "people": "106", "quasi-public": "無", "lng": 121.52646998945926, "lat": 25.019060017084271 }, "geometry": { "type": "Point", "coordinates": [ 121.526469989459258, 25.019060017084271 ] } },
{ "type": "Feature", "properties": { "name": "臺北市蘭州非營利幼兒園（委託財團法人彭婉如文教基金會辦理）", "district": "大同區", "type": "非營利", "address": "[103]大龍街187巷1號1", "telephone": "(02)25918330", "people": "136", "quasi-public": "無", "lng": 121.51675997372564, "lat": 25.069320004000005 }, "geometry": { "type": "Point", "coordinates": [ 121.516759973725641, 25.069320004 ] } },
{ "type": "Feature", "properties": { "name": "臺北市大龍峒非營利幼兒園（委託財團法人台北基督教女青年會辦理）", "district": "大同區", "type": "非營利", "address": "[103]重慶北路3段320號（臺北市立啟聰學校內）", "telephone": "(02)25922221", "people": "106", "quasi-public": "無", "lng": 121.51358, "lat": 25.07469 }, "geometry": { "type": "Point", "coordinates": [ 121.51358, 25.07469 ] } },
{ "type": "Feature", "properties": { "name": "臺北市明倫非營利幼兒園（委託社團法人台北市教保人員協會辦理）", "district": "大同區", "type": "非營利", "address": "[103]承德路3段285-7號", "telephone": "(02)25350526", "people": "152", "quasi-public": "無", "lng": 121.51941997069838, "lat": 25.07311000724934 }, "geometry": { "type": "Point", "coordinates": [ 121.51941997069838, 25.07311000724934 ] } },
{ "type": "Feature", "properties": { "name": "財政部關務署員工子女非營利幼兒園（委託財團法人彭婉如文教基金會辦理）", "district": "大同區", "type": "非營利", "address": "[103]塔城街13號", "telephone": "(02)25506009", "people": "136", "quasi-public": "無", "lng": 121.510600029263, "lat": 25.051209980180118 }, "geometry": { "type": "Point", "coordinates": [ 121.510600029263003, 25.051209980180118 ] } },
{ "type": "Feature", "properties": { "name": "臺北市濱江非營利幼兒園（委託社團法人台北市教保人員協會辦理）", "district": "中山區", "type": "非營利", "address": "[104]樂群二路262號", "telephone": "(02)85026191", "people": "106", "quasi-public": "無", "lng": 121.56083000896535, "lat": 25.079549991097096 }, "geometry": { "type": "Point", "coordinates": [ 121.560830008965354, 25.079549991097096 ] } },
{ "type": "Feature", "properties": { "name": "臺北市國防部大直非營利幼兒園（委託財團法人實踐大學辦理）", "district": "中山區", "type": "非營利", "address": "[104]崇實路127號", "telephone": "(02)25320398#9", "people": "212", "quasi-public": "無", "lng": 121.54478997995369, "lat": 25.083159992975723 }, "geometry": { "type": "Point", "coordinates": [ 121.544789979953691, 25.083159992975723 ] } },
{ "type": "Feature", "properties": { "name": "臺北市經國三民非營利幼兒園（委託財團法人經國管理暨健康學院辦理）", "district": "松山區", "type": "非營利", "address": "[105]民生東路5段163-1號2樓", "telephone": "(02)27564213", "people": "210", "quasi-public": "無", "lng": 121.56280000766867, "lat": 25.059149989420149 }, "geometry": { "type": "Point", "coordinates": [ 121.56280000766867, 25.059149989420149 ] } },
{ "type": "Feature", "properties": { "name": "臺北市民生非營利幼兒園（委託財團法人台北市中華基督教青年會辦理）", "district": "松山區", "type": "非營利", "address": "[105]新東街30巷1號", "telephone": "(02)27457737", "people": "106", "quasi-public": "無", "lng": 121.56756000666297, "lat": 25.059850004063847 }, "geometry": { "type": "Point", "coordinates": [ 121.567560006662973, 25.059850004063847 ] } },
{ "type": "Feature", "properties": { "name": "臺北市正義非營利幼兒園（委託社團法人中華婦幼發展協會辦理）", "district": "大安區", "type": "非營利", "address": "[106]忠孝東路三段216巷4弄41號1樓及2樓", "telephone": "(02)27726656", "people": "144", "quasi-public": "無", "lng": 121.53858113144895, "lat": 25.041109586919042 }, "geometry": { "type": "Point", "coordinates": [ 121.53858113144895, 25.041109586919042 ] } },
{ "type": "Feature", "properties": { "name": "臺北市辛亥非營利幼兒園（委託社團法人中華婦幼發展協會辦理）", "district": "大安區", "type": "非營利", "address": "[106]辛亥路三段11號1樓及2樓", "telephone": "(02)27322374", "people": "144", "quasi-public": "無", "lng": 121.54733939653528, "lat": 25.018899009810784 }, "geometry": { "type": "Point", "coordinates": [ 121.547339396535278, 25.018899009810784 ] } },
{ "type": "Feature", "properties": { "name": "臺北市安東非營利幼兒園（委託社團法人台北市兒童托育協會辦理）", "district": "大安區", "type": "非營利", "address": "[106]瑞安街75號2樓", "telephone": "(02)27067642", "people": "182", "quasi-public": "無", "lng": 121.54093002972235, "lat": 25.028109999852305 }, "geometry": { "type": "Point", "coordinates": [ 121.540930029722347, 25.028109999852305 ] } },
{ "type": "Feature", "properties": { "name": "臺北市黃鸝鳥非營利幼兒園（委託耕莘健康管理專科學校辦理）", "district": "大安區", "type": "非營利", "address": "[106]羅斯福路四段21號", "telephone": "(02)23621071", "people": "76", "quasi-public": "無", "lng": 121.53522002582218, "lat": 25.014229987288928 }, "geometry": { "type": "Point", "coordinates": [ 121.535220025822184, 25.014229987288928 ] } },
{ "type": "Feature", "properties": { "name": "臺北市族中非營利幼兒園（委託社團法人台北市教保人員協會辦理）", "district": "大安區", "type": "非營利", "address": "[106]羅斯福路4段113巷13號", "telephone": "(02)27365861", "people": "106", "quasi-public": "無", "lng": 121.53883002770078, "lat": 25.011179980361447 }, "geometry": { "type": "Point", "coordinates": [ 121.538830027700783, 25.011179980361447 ] } },
{ "type": "Feature", "properties": { "name": "臺北市懷中非營利幼兒園（委託財團法人海棠文教基金會辦理）", "district": "大安區", "type": "非營利", "address": "[106]忠孝東路3段248巷30號", "telephone": "(02)27114688", "people": "258", "quasi-public": "無", "lng": 121.54120001082367, "lat": 25.040359983705159 }, "geometry": { "type": "Point", "coordinates": [ 121.541200010823673, 25.040359983705159 ] } },
{ "type": "Feature", "properties": { "name": "臺北市新安非營利幼兒園（委託社團法人台灣幼兒早期教育協會辦理）", "district": "大安區", "type": "非營利", "address": "[106]臥龍街129號", "telephone": "(02)27360227", "people": "106", "quasi-public": "無", "lng": 121.54964997505289, "lat": 25.019499983181944 }, "geometry": { "type": "Point", "coordinates": [ 121.549649975052887, 25.019499983181944 ] } },
{ "type": "Feature", "properties": { "name": "臺北市國興非營利幼兒園（委託財團法人海棠文教基金會辦理）", "district": "萬華區", "type": "非營利", "address": "[108]國興路46號1樓及2樓", "telephone": "(02)2303-8164", "people": "162", "quasi-public": "無", "lng": 121.50743996794682, "lat": 25.025270001508886 }, "geometry": { "type": "Point", "coordinates": [ 121.507439967946823, 25.025270001508886 ] } },
{ "type": "Feature", "properties": { "name": "臺北市雙中非營利幼兒園（委託財團法人台北市中華基督教青年會辦理）", "district": "萬華區", "type": "非營利", "address": "[108]興義街2號", "telephone": "(02)2336-3258", "people": "182", "quasi-public": "無", "lng": 121.49272000486621, "lat": 25.027619993792669 }, "geometry": { "type": "Point", "coordinates": [ 121.492720004866214, 25.027619993792669 ] } },
{ "type": "Feature", "properties": { "name": "臺北市亭中非營利幼兒園(委託財團法人海棠文教基金會辦理)", "district": "萬華區", "type": "非營利", "address": "[108]中華路二段606巷3號(古亭國中第二校區內)", "telephone": "(02)2332-0289", "people": "76", "quasi-public": "無", "lng": 121.50994003820693, "lat": 25.023760001651837 }, "geometry": { "type": "Point", "coordinates": [ 121.509940038206935, 25.023760001651837 ] } },
{ "type": "Feature", "properties": { "name": "臺北市市政大樓員工子女非營利幼兒園(委託臺北市公務人員協會辦理)", "district": "信義區", "type": "非營利", "address": "[110]市府路1號南區2樓", "telephone": "(02)27208889#3430", "people": "120", "quasi-public": "無", "lng": 121.56441997809543, "lat": 25.037519985361726 }, "geometry": { "type": "Point", "coordinates": [ 121.56441997809543, 25.037519985361726 ] } },
{ "type": "Feature", "properties": { "name": "臺北市信中非營利幼兒園（委託財團法人福智文教基金會辦理）", "district": "信義區", "type": "非營利", "address": "[110]松仁路158巷1號1樓至2樓", "telephone": "(02)2720-2271", "people": "152", "quasi-public": "無", "lng": 121.56833680820104, "lat": 25.027210013953599 }, "geometry": { "type": "Point", "coordinates": [ 121.568336808201039, 25.027210013953599 ] } },
{ "type": "Feature", "properties": { "name": "臺北市吉中非營利幼兒園(委託財團法人台北基督教女青年會辦理)", "district": "信義區", "type": "非營利", "address": "[110]松隆路161號", "telephone": "(02)2768-1159#6610", "people": "212", "quasi-public": "無", "lng": 121.57413996829376, "lat": 25.048330000158558 }, "geometry": { "type": "Point", "coordinates": [ 121.574139968293764, 25.048330000158558 ] } },
{ "type": "Feature", "properties": { "name": "臺北市瑠公非營利幼兒園（委託社團法人中華音樂舞蹈暨表演藝術教育協會辦理）", "district": "信義區", "type": "非營利", "address": "[110]福德街221巷15號", "telephone": "(02)27279090", "people": "182", "quasi-public": "無", "lng": 121.58532000220629, "lat": 25.037059986515459 }, "geometry": { "type": "Point", "coordinates": [ 121.585320002206288, 25.037059986515459 ] } },
{ "type": "Feature", "properties": { "name": "臺北市協祐非營利幼兒園（委託社團法人臺北市幼托協會辦理）", "district": "信義區", "type": "非營利", "address": "[110]忠孝東路5段790巷27號", "telephone": "(02)27598005", "people": "212", "quasi-public": "無", "lng": 121.58348000682122, "lat": 25.042619996258352 }, "geometry": { "type": "Point", "coordinates": [ 121.583480006821219, 25.042619996258352 ] } },
{ "type": "Feature", "properties": { "name": "臺北市三玉非營利幼兒園（委託社團法人台北市幼兒園協會辦理）", "district": "士林區", "type": "非營利", "address": "[111]忠誠路二段53巷7號1、2樓", "telephone": "(02)88661016", "people": "198", "quasi-public": "無", "lng": 121.53265913020232, "lat": 25.11138945038077 }, "geometry": { "type": "Point", "coordinates": [ 121.532659130202319, 25.11138945038077 ] } },
{ "type": "Feature", "properties": { "name": "臺北市葫蘆非營利幼兒園（委託社團法人台灣公共托育協會辦理）", "district": "士林區", "type": "非營利", "address": "[111]延平北路5段136巷1號1.2樓", "telephone": "(02)28151220", "people": "150", "quasi-public": "無", "lng": 121.5108866929536, "lat": 25.08220639632702 }, "geometry": { "type": "Point", "coordinates": [ 121.510886692953605, 25.08220639632702 ] } },
{ "type": "Feature", "properties": { "name": "臺北市天母非營利幼兒園（委託社團法人台北市幼兒園協會辦理）", "district": "士林區", "type": "非營利", "address": "[111]天玉街12號", "telephone": "(02)28772327", "people": "90", "quasi-public": "無", "lng": 121.52623001557134, "lat": 25.119429996758427 }, "geometry": { "type": "Point", "coordinates": [ 121.526230015571343, 25.119429996758427 ] } },
{ "type": "Feature", "properties": { "name": "臺北市新三玉非營利幼兒園(委託財團法人毛毛蟲兒童哲學基金會辦理)", "district": "士林區", "type": "非營利", "address": "[111]天母東路116號", "telephone": "(02)28742988", "people": "190", "quasi-public": "無", "lng": 121.53732002784375, "lat": 25.117989985792889 }, "geometry": { "type": "Point", "coordinates": [ 121.537320027843748, 25.117989985792889 ] } },
{ "type": "Feature", "properties": { "name": "臺北市泰北非營利幼兒園(委託財團法人三之三生命教育基金會辦理)", "district": "士林區", "type": "非營利", "address": "[111]福林路240號", "telephone": "(02)28828633", "people": "106", "quasi-public": "無", "lng": 121.53394002538823, "lat": 25.097320003014673 }, "geometry": { "type": "Point", "coordinates": [ 121.533940025388233, 25.097320003014673 ] } },
{ "type": "Feature", "properties": { "name": "臺北市吉利非營利幼兒園(委託社團法人台北市親子成長協會辦理)", "district": "北投區", "type": "非營利", "address": "[112]立農街一段366號1至3樓", "telephone": "(02)28200118", "people": "147", "quasi-public": "無", "lng": 121.50838997285274, "lat": 25.119330000653548 }, "geometry": { "type": "Point", "coordinates": [ 121.50838997285274, 25.119330000653548 ] } },
{ "type": "Feature", "properties": { "name": "臺北市北溫非營利幼兒園(委託社團法人台北市教保人員協會辦理)", "district": "北投區", "type": "非營利", "address": "[112]溫泉路62號", "telephone": "(02)28955608", "people": "136", "quasi-public": "無", "lng": 121.50423003430677, "lat": 25.134460006437479 }, "geometry": { "type": "Point", "coordinates": [ 121.504230034306772, 25.134460006437479 ] } },
{ "type": "Feature", "properties": { "name": "臺北市妙善非營利幼兒園(委託財團法人福智文教基金會辦理)", "district": "內湖區", "type": "非營利", "address": "[114]行善路25巷13號1樓", "telephone": "(02)27921389", "people": "89", "quasi-public": "無", "lng": 121.57709446938991, "lat": 25.056877942343828 }, "geometry": { "type": "Point", "coordinates": [ 121.577094469389905, 25.056877942343828 ] } },
{ "type": "Feature", "properties": { "name": "臺北市妙善非營利幼兒園(委託財團法人福智文教基金會辦理)行善分班", "district": "內湖區", "type": "非營利", "address": "[114]行善路25巷11號1、2樓", "telephone": "(02)2792-1389", "people": "60", "quasi-public": "無", "lng": 121.57709446938991, "lat": 25.056877942343828 }, "geometry": { "type": "Point", "coordinates": [ 121.577094469389905, 25.056877942343828 ] } },
{ "type": "Feature", "properties": { "name": "臺北市新東湖非營利幼兒園(委託社團法人台北市幼兒園協會辦理)", "district": "內湖區", "type": "非營利", "address": "[114]康樂街110巷16弄22號1.2樓", "telephone": "(02)26327828", "people": "130", "quasi-public": "無", "lng": 121.61827001796024, "lat": 25.070320006958354 }, "geometry": { "type": "Point", "coordinates": [ 121.618270017960242, 25.070320006958354 ] } },
{ "type": "Feature", "properties": { "name": "臺北市星雲非營利幼兒園(委託社團法人臺北市幼托協會辦理)", "district": "內湖區", "type": "非營利", "address": "[114]星雲街161巷3號2樓", "telephone": "(02)87918776", "people": "85", "quasi-public": "無", "lng": 121.59620044970356, "lat": 25.081456216035878 }, "geometry": { "type": "Point", "coordinates": [ 121.596200449703559, 25.081456216035878 ] } },
{ "type": "Feature", "properties": { "name": "臺北市康寧非營利幼兒園（委託財團法人幼兒教育基金會辦理）", "district": "內湖區", "type": "非營利", "address": "[114]康寧路三段189巷93弄18號1樓", "telephone": "(02)26319818", "people": "76", "quasi-public": "無", "lng": 121.61135997698238, "lat": 25.073160005301773 }, "geometry": { "type": "Point", "coordinates": [ 121.611359976982385, 25.073160005301773 ] } },
{ "type": "Feature", "properties": { "name": "臺北市三民亦禮非營利幼兒園（委託財團法人中華民國唐氏症基金會辦理）", "district": "內湖區", "type": "非營利", "address": "[114]民權東路六段45號", "telephone": "(02)2796-8321", "people": "106", "quasi-public": "無", "lng": 121.5862700071122, "lat": 25.069159993468389 }, "geometry": { "type": "Point", "coordinates": [ 121.586270007112205, 25.069159993468389 ] } },
{ "type": "Feature", "properties": { "name": "臺北市西中非營利幼兒園(委託財團法人靖娟兒童安全文教基金會辦理)", "district": "內湖區", "type": "非營利", "address": "[114]環山路一段27號", "telephone": "(02)2797-0700", "people": "152", "quasi-public": "無", "lng": 121.56566997131597, "lat": 25.085830006322738 }, "geometry": { "type": "Point", "coordinates": [ 121.56566997131597, 25.085830006322738 ] } },
{ "type": "Feature", "properties": { "name": "臺北市石壁潭非營利幼兒園（委託社團法人嬰幼兒教育與家庭發展協會辦理）", "district": "內湖區", "type": "非營利", "address": "[114]新明路22號", "telephone": "(02)2794-0600", "people": "131", "quasi-public": "無", "lng": 121.59079003221859, "lat": 25.060939986752786 }, "geometry": { "type": "Point", "coordinates": [ 121.590790032218592, 25.060939986752786 ] } },
{ "type": "Feature", "properties": { "name": "臺北市湖美非營利幼兒園（委託社團法人台灣社會發展推動協會辦理）", "district": "內湖區", "type": "非營利", "address": "[114]行善路268號1樓(行善社宅內)", "telephone": "(02)2793-0609", "people": "136", "quasi-public": "無", "lng": 121.58154998979603, "lat": 25.060160008752788 }, "geometry": { "type": "Point", "coordinates": [ 121.581549989796031, 25.060160008752788 ] } },
{ "type": "Feature", "properties": { "name": "臺北市東中非營利幼兒園（委託社團法人台北市幼兒園協會辦理）", "district": "內湖區", "type": "非營利", "address": "[114]康樂街131號1樓(東湖國中內)", "telephone": "(02)2631-1368", "people": "90", "quasi-public": "無", "lng": 121.61968999617716, "lat": 25.073769998305366 }, "geometry": { "type": "Point", "coordinates": [ 121.619689996177158, 25.073769998305366 ] } },
{ "type": "Feature", "properties": { "name": "臺北市港福非營利幼兒園(委託中華學校財團法人辦理)", "district": "南港區", "type": "非營利", "address": "[115]福德街373巷43號1樓", "telephone": "(02)26543767", "people": "136", "quasi-public": "無", "lng": 121.59287000149158, "lat": 25.039920017607471 }, "geometry": { "type": "Point", "coordinates": [ 121.592870001491576, 25.039920017607471 ] } },
{ "type": "Feature", "properties": { "name": "臺北市胡適非營利幼兒園（委託社團法人中華音樂舞蹈暨表演藝術教育協會辦理）", "district": "南港區", "type": "非營利", "address": "[115]舊莊街一段1號1樓", "telephone": "(02)26513362", "people": "90", "quasi-public": "無", "lng": 121.61761892080176, "lat": 25.041958496354678 }, "geometry": { "type": "Point", "coordinates": [ 121.61761892080176, 25.041958496354678 ] } },
{ "type": "Feature", "properties": { "name": "臺北市向陽非營利幼兒園（委託社團法人嬰幼兒教育與家庭發展協會辦理）", "district": "南港區", "type": "非營利", "address": "[115]向陽路31號", "telephone": "(02)2785-6151", "people": "106", "quasi-public": "無", "lng": 121.59476003683858, "lat": 25.053610012425864 }, "geometry": { "type": "Point", "coordinates": [ 121.594760036838579, 25.053610012425864 ] } }
]
}
